[
 {
   "from_airport": "Balandino",
   "from_city": "Chelyabinsk",
   "from_country": "Russia",
   "from_long": 61.838,
   "from_lat": 55.509,
   "to_airport": "Domododevo",
   "to_city": "Moscow",
   "to_country": "Russia",
   "to_long": 38.51,
   "to_lat": 55.681,
   "airline": "Aerocondor",
   "airline_country": "Portugal",
   "distance": 1458
 },
 {
   "from_airport": "Balandino",
   "from_city": "Chelyabinsk",
   "from_country": "Russia",
   "from_long": 61.838,
   "from_lat": 55.509,
   "to_airport": "Kazan",
   "to_city": "Kazan",
   "to_country": "Russia",
   "to_long": 49.464,
   "to_lat": 56.01,
   "airline": "Aerocondor",
   "airline_country": "Portugal",
   "distance": 775
 },
 {
   "from_airport": "Balandino",
   "from_city": "Chelyabinsk",
   "from_country": "Russia",
   "from_long": 61.838,
   "from_lat": 55.509,
   "to_airport": "Tolmachevo",
   "to_city": "Novosibirsk",
   "to_country": "Russia",
   "to_long": 83.084,
   "to_lat": 55.021,
   "airline": "Aerocondor",
   "airline_country": "Portugal",
   "distance": 1341
 },
 {
   "from_airport": "Domododevo",
   "from_city": "Moscow",
   "from_country": "Russia",
   "from_long": 38.51,
   "from_lat": 55.681,
   "to_airport": "Balandino",
   "to_city": "Chelyabinsk",
   "to_country": "Russia",
   "to_long": 61.838,
   "to_lat": 55.509,
   "airline": "Aerocondor",
   "airline_country": "Portugal",
   "distance": 1458
 },
 {
   "from_airport": "Domododevo",
   "from_city": "Moscow",
   "from_country": "Russia",
   "from_long": 38.51,
   "from_lat": 55.681,
   "to_airport": "Khrabrovo",
   "to_city": "Kaliningrad",
   "to_country": "Russia",
   "to_long": 20.987,
   "to_lat": 55.483,
   "airline": "Aerocondor",
   "airline_country": "Portugal",
   "distance": 1098
 },
 {
   "from_airport": "Domododevo",
   "from_city": "Moscow",
   "from_country": "Russia",
   "from_long": 38.51,
   "from_lat": 55.681,
   "to_airport": "Kazan",
   "to_city": "Kazan",
   "to_country": "Russia",
   "to_long": 49.464,
   "to_lat": 56.01,
   "airline": "Aerocondor",
   "airline_country": "Portugal",
   "distance": 684
 },
 {
   "from_airport": "Domododevo",
   "from_city": "Moscow",
   "from_country": "Russia",
   "from_long": 38.51,
   "from_lat": 55.681,
   "to_airport": "Beaufort Mcas",
   "to_city": "Beaufort",
   "to_country": "United States",
   "to_long": -80.539,
   "to_lat": 32.795,
   "airline": "Aerocondor",
   "airline_country": "Portugal",
   "distance": 8612
 },
 {
   "from_airport": "Domododevo",
   "from_city": "Moscow",
   "from_country": "Russia",
   "from_long": 38.51,
   "from_lat": 55.681,
   "to_airport": "Penza Airport",
   "to_city": "Penza",
   "to_country": "Russia",
   "to_long": 45.035,
   "to_lat": 53.184,
   "airline": "Aerocondor",
   "airline_country": "Portugal",
   "distance": 504
 },
 {
   "from_airport": "Domododevo",
   "from_city": "Moscow",
   "from_country": "Russia",
   "from_long": 38.51,
   "from_lat": 55.681,
   "to_airport": "Bugulma Airport",
   "to_city": "Bugulma",
   "to_country": "Russia",
   "to_long": 53.336,
   "to_lat": 55.066,
   "airline": "Aerocondor",
   "airline_country": "Portugal",
   "distance": 937
 },
 {
   "from_airport": "Heydar Aliyev",
   "from_city": "Baku",
   "from_country": "Azerbaijan",
   "from_long": 50.077,
   "from_lat": 40.779,
   "to_airport": "Beaufort Mcas",
   "to_city": "Beaufort",
   "to_country": "United States",
   "to_long": -80.539,
   "to_lat": 32.795,
   "airline": "Aerocondor",
   "airline_country": "Portugal",
   "distance": 10393
 },
 {
   "from_airport": "Khrabrovo",
   "from_city": "Kaliningrad",
   "from_country": "Russia",
   "from_long": 20.987,
   "from_lat": 55.483,
   "to_airport": "Domododevo",
   "to_city": "Moscow",
   "to_country": "Russia",
   "to_long": 38.51,
   "to_lat": 55.681,
   "airline": "Aerocondor",
   "airline_country": "Portugal",
   "distance": 1098
 },
 {
   "from_airport": "Kazan",
   "from_city": "Kazan",
   "from_country": "Russia",
   "from_long": 49.464,
   "from_lat": 56.01,
   "to_airport": "Balandino",
   "to_city": "Chelyabinsk",
   "to_country": "Russia",
   "to_long": 61.838,
   "to_lat": 55.509,
   "airline": "Aerocondor",
   "airline_country": "Portugal",
   "distance": 775
 },
 {
   "from_airport": "Kazan",
   "from_city": "Kazan",
   "from_country": "Russia",
   "from_long": 49.464,
   "from_lat": 56.01,
   "to_airport": "Domododevo",
   "to_city": "Moscow",
   "to_country": "Russia",
   "to_long": 38.51,
   "to_lat": 55.681,
   "airline": "Aerocondor",
   "airline_country": "Portugal",
   "distance": 684
 },
 {
   "from_airport": "Kazan",
   "from_city": "Kazan",
   "from_country": "Russia",
   "from_long": 49.464,
   "from_lat": 56.01,
   "to_airport": "Pulkovo",
   "to_city": "St. Petersburg",
   "to_country": "Russia",
   "to_long": 30.437,
   "to_lat": 60.333,
   "airline": "Aerocondor",
   "airline_country": "Portugal",
   "distance": 1209
 },
 {
   "from_airport": "Kazan",
   "from_city": "Kazan",
   "from_country": "Russia",
   "from_long": 49.464,
   "from_lat": 56.01,
   "to_airport": "Franz Josef Strauss",
   "to_city": "Munich",
   "to_country": "Germany",
   "to_long": 12.31,
   "to_lat": 48.589,
   "airline": "Aerocondor",
   "airline_country": "Portugal",
   "distance": 2621
 },
 {
   "from_airport": "Kazan",
   "from_city": "Kazan",
   "from_country": "Russia",
   "from_long": 49.464,
   "from_lat": 56.01,
   "to_airport": "Bugulma Airport",
   "to_city": "Bugulma",
   "to_country": "Russia",
   "to_long": 53.336,
   "to_lat": 55.066,
   "airline": "Aerocondor",
   "airline_country": "Portugal",
   "distance": 265
 },
 {
   "from_airport": "Pulkovo",
   "from_city": "St. Petersburg",
   "from_country": "Russia",
   "from_long": 30.437,
   "from_lat": 60.333,
   "to_airport": "Kazan",
   "to_city": "Kazan",
   "to_country": "Russia",
   "to_long": 49.464,
   "to_lat": 56.01,
   "airline": "Aerocondor",
   "airline_country": "Portugal",
   "distance": 1209
 },
 {
   "from_airport": "Pulkovo",
   "from_city": "St. Petersburg",
   "from_country": "Russia",
   "from_long": 30.437,
   "from_lat": 60.333,
   "to_airport": "Beaufort Mcas",
   "to_city": "Beaufort",
   "to_country": "United States",
   "to_long": -80.539,
   "to_lat": 32.795,
   "airline": "Aerocondor",
   "airline_country": "Portugal",
   "distance": 7920
 },
 {
   "from_airport": "Pulkovo",
   "from_city": "St. Petersburg",
   "from_country": "Russia",
   "from_long": 30.437,
   "from_lat": 60.333,
   "to_airport": "Bugulma Airport",
   "to_city": "Bugulma",
   "to_country": "Russia",
   "to_long": 53.336,
   "to_lat": 55.066,
   "airline": "Aerocondor",
   "airline_country": "Portugal",
   "distance": 1471
 },
 {
   "from_airport": "Franz Josef Strauss",
   "from_city": "Munich",
   "from_country": "Germany",
   "from_long": 12.31,
   "from_lat": 48.589,
   "to_airport": "Kazan",
   "to_city": "Kazan",
   "to_country": "Russia",
   "to_long": 49.464,
   "to_lat": 56.01,
   "airline": "Aerocondor",
   "airline_country": "Portugal",
   "distance": 2621
 },
 {
   "from_airport": "Beaufort Mcas",
   "from_city": "Beaufort",
   "from_country": "United States",
   "from_long": -80.539,
   "from_lat": 32.795,
   "to_airport": "Domododevo",
   "to_city": "Moscow",
   "to_country": "Russia",
   "to_long": 38.51,
   "to_lat": 55.681,
   "airline": "Aerocondor",
   "airline_country": "Portugal",
   "distance": 8612
 },
 {
   "from_airport": "Beaufort Mcas",
   "from_city": "Beaufort",
   "from_country": "United States",
   "from_long": -80.539,
   "from_lat": 32.795,
   "to_airport": "Heydar Aliyev",
   "to_city": "Baku",
   "to_country": "Azerbaijan",
   "to_long": 50.077,
   "to_lat": 40.779,
   "airline": "Aerocondor",
   "airline_country": "Portugal",
   "distance": 10393
 },
 {
   "from_airport": "Beaufort Mcas",
   "from_city": "Beaufort",
   "from_country": "United States",
   "from_long": -80.539,
   "from_lat": 32.795,
   "to_airport": "Pulkovo",
   "to_city": "St. Petersburg",
   "to_country": "Russia",
   "to_long": 30.437,
   "to_lat": 60.333,
   "airline": "Aerocondor",
   "airline_country": "Portugal",
   "distance": 7920
 },
 {
   "from_airport": "Nizhnevartovsk",
   "from_city": "Nizhnevartovsk",
   "from_country": "Russia",
   "from_long": 76.806,
   "from_lat": 61.582,
   "to_airport": "Bugulma Airport",
   "to_city": "Bugulma",
   "to_country": "Russia",
   "to_long": 53.336,
   "to_lat": 55.066,
   "airline": "Aerocondor",
   "airline_country": "Portugal",
   "distance": 1538
 },
 {
   "from_airport": "Tolmachevo",
   "from_city": "Novosibirsk",
   "from_country": "Russia",
   "from_long": 83.084,
   "from_lat": 55.021,
   "to_airport": "Balandino",
   "to_city": "Chelyabinsk",
   "to_country": "Russia",
   "to_long": 61.838,
   "to_lat": 55.509,
   "airline": "Aerocondor",
   "airline_country": "Portugal",
   "distance": 1341
 },
 {
   "from_airport": "Penza Airport",
   "from_city": "Penza",
   "from_country": "Russia",
   "from_long": 45.035,
   "from_lat": 53.184,
   "to_airport": "Domododevo",
   "to_city": "Moscow",
   "to_country": "Russia",
   "to_long": 38.51,
   "to_lat": 55.681,
   "airline": "Aerocondor",
   "airline_country": "Portugal",
   "distance": 504
 },
 {
   "from_airport": "Bugulma Airport",
   "from_city": "Bugulma",
   "from_country": "Russia",
   "from_long": 53.336,
   "from_lat": 55.066,
   "to_airport": "Domododevo",
   "to_city": "Moscow",
   "to_country": "Russia",
   "to_long": 38.51,
   "to_lat": 55.681,
   "airline": "Aerocondor",
   "airline_country": "Portugal",
   "distance": 937
 },
 {
   "from_airport": "Bugulma Airport",
   "from_city": "Bugulma",
   "from_country": "Russia",
   "from_long": 53.336,
   "from_lat": 55.066,
   "to_airport": "Kazan",
   "to_city": "Kazan",
   "to_country": "Russia",
   "to_long": 49.464,
   "to_lat": 56.01,
   "airline": "Aerocondor",
   "airline_country": "Portugal",
   "distance": 265
 },
 {
   "from_airport": "Bugulma Airport",
   "from_city": "Bugulma",
   "from_country": "Russia",
   "from_long": 53.336,
   "from_lat": 55.066,
   "to_airport": "Pulkovo",
   "to_city": "St. Petersburg",
   "to_country": "Russia",
   "to_long": 30.437,
   "to_lat": 60.333,
   "airline": "Aerocondor",
   "airline_country": "Portugal",
   "distance": 1471
 },
 {
   "from_airport": "Bugulma Airport",
   "from_city": "Bugulma",
   "from_country": "Russia",
   "from_long": 53.336,
   "from_lat": 55.066,
   "to_airport": "Nizhnevartovsk",
   "to_city": "Nizhnevartovsk",
   "to_country": "Russia",
   "to_long": 76.806,
   "to_lat": 61.582,
   "airline": "Aerocondor",
   "airline_country": "Portugal",
   "distance": 1538
 },
 {
   "from_airport": "Andahuaylas",
   "from_city": "Andahuaylas",
   "from_country": "Peru",
   "from_long": -72.918,
   "from_lat": -13.511,
   "to_airport": "Jorge Chavez Intl",
   "to_city": "Lima",
   "to_country": "Peru",
   "to_long": -76.524,
   "to_lat": -11.37,
   "airline": "Star Peru (2I)",
   "airline_country": "Peru",
   "distance": 458
 },
 {
   "from_airport": "Rodriguez Ballon",
   "from_city": "Arequipa",
   "from_country": "Peru",
   "from_long": -71.306,
   "from_lat": -15.902,
   "to_airport": "Juliaca",
   "to_city": "Juliaca",
   "to_country": "Peru",
   "to_long": -69.597,
   "to_lat": -15.112,
   "airline": "Star Peru (2I)",
   "airline_country": "Peru",
   "distance": 203
 },
 {
   "from_airport": "Rodriguez Ballon",
   "from_city": "Arequipa",
   "from_country": "Peru",
   "from_long": -71.306,
   "from_lat": -15.902,
   "to_airport": "Jorge Chavez Intl",
   "to_city": "Lima",
   "to_country": "Peru",
   "to_long": -76.524,
   "to_lat": -11.37,
   "airline": "Star Peru (2I)",
   "airline_country": "Peru",
   "distance": 756
 },
 {
   "from_airport": "Coronel Fap Alfredo Mendivil Duarte",
   "from_city": "Ayacucho",
   "from_country": "Peru",
   "from_long": -73.675,
   "from_lat": -12.592,
   "to_airport": "Jorge Chavez Intl",
   "to_city": "Lima",
   "to_country": "Peru",
   "to_long": -76.524,
   "to_lat": -11.37,
   "airline": "Star Peru (2I)",
   "airline_country": "Peru",
   "distance": 338
 },
 {
   "from_airport": "Teniente Alejandro Velasco Astete Intl",
   "from_city": "Cuzco",
   "from_country": "Peru",
   "from_long": -71.898,
   "from_lat": -13.227,
   "to_airport": "Jorge Chavez Intl",
   "to_city": "Lima",
   "to_country": "Peru",
   "to_long": -76.524,
   "to_lat": -11.37,
   "airline": "Star Peru (2I)",
   "airline_country": "Peru",
   "distance": 543
 },
 {
   "from_airport": "Teniente Alejandro Velasco Astete Intl",
   "from_city": "Cuzco",
   "from_country": "Peru",
   "from_long": -71.898,
   "from_lat": -13.227,
   "to_airport": "Padre Aldamiz",
   "to_city": "Puerto Maldonado",
   "to_country": "Peru",
   "to_long": -68.715,
   "to_lat": -12.357,
   "airline": "Star Peru (2I)",
   "airline_country": "Peru",
   "distance": 358
 },
 {
   "from_airport": "Alferez Fap David Figueroa Fernandini Airport",
   "from_city": "Huánuco",
   "from_country": "Peru",
   "from_long": -75.675,
   "from_lat": -9.799,
   "to_airport": "Jorge Chavez Intl",
   "to_city": "Lima",
   "to_country": "Peru",
   "to_long": -76.524,
   "to_lat": -11.37,
   "airline": "Star Peru (2I)",
   "airline_country": "Peru",
   "distance": 197
 },
 {
   "from_airport": "Coronel Francisco Secada Vignetta Intl",
   "from_city": "Iquitos",
   "from_country": "Peru",
   "from_long": -72.849,
   "from_lat": -3.642,
   "to_airport": "Cap Fap David Abenzur Rengifo Intl",
   "to_city": "Pucallpa",
   "to_country": "Peru",
   "to_long": -74.291,
   "to_lat": -7.964,
   "airline": "Star Peru (2I)",
   "airline_country": "Peru",
   "distance": 506
 },
 {
   "from_airport": "Coronel Francisco Secada Vignetta Intl",
   "from_city": "Iquitos",
   "from_country": "Peru",
   "from_long": -72.849,
   "from_lat": -3.642,
   "to_airport": "Cadete Guillermo Del Castillo Paredes",
   "to_city": "Tarapoto",
   "to_country": "Peru",
   "to_long": -75.956,
   "to_lat": -6.182,
   "airline": "Star Peru (2I)",
   "airline_country": "Peru",
   "distance": 445
 },
 {
   "from_airport": "Juliaca",
   "from_city": "Juliaca",
   "from_country": "Peru",
   "from_long": -69.597,
   "from_lat": -15.112,
   "to_airport": "Rodriguez Ballon",
   "to_city": "Arequipa",
   "to_country": "Peru",
   "to_long": -71.306,
   "to_lat": -15.902,
   "airline": "Star Peru (2I)",
   "airline_country": "Peru",
   "distance": 203
 },
 {
   "from_airport": "Jorge Chavez Intl",
   "from_city": "Lima",
   "from_country": "Peru",
   "from_long": -76.524,
   "from_lat": -11.37,
   "to_airport": "Andahuaylas",
   "to_city": "Andahuaylas",
   "to_country": "Peru",
   "to_long": -72.918,
   "to_lat": -13.511,
   "airline": "Star Peru (2I)",
   "airline_country": "Peru",
   "distance": 458
 },
 {
   "from_airport": "Jorge Chavez Intl",
   "from_city": "Lima",
   "from_country": "Peru",
   "from_long": -76.524,
   "from_lat": -11.37,
   "to_airport": "Rodriguez Ballon",
   "to_city": "Arequipa",
   "to_country": "Peru",
   "to_long": -71.306,
   "to_lat": -15.902,
   "airline": "Star Peru (2I)",
   "airline_country": "Peru",
   "distance": 756
 },
 {
   "from_airport": "Jorge Chavez Intl",
   "from_city": "Lima",
   "from_country": "Peru",
   "from_long": -76.524,
   "from_lat": -11.37,
   "to_airport": "Coronel Fap Alfredo Mendivil Duarte",
   "to_city": "Ayacucho",
   "to_country": "Peru",
   "to_long": -73.675,
   "to_lat": -12.592,
   "airline": "Star Peru (2I)",
   "airline_country": "Peru",
   "distance": 338
 },
 {
   "from_airport": "Jorge Chavez Intl",
   "from_city": "Lima",
   "from_country": "Peru",
   "from_long": -76.524,
   "from_lat": -11.37,
   "to_airport": "Teniente Alejandro Velasco Astete Intl",
   "to_city": "Cuzco",
   "to_country": "Peru",
   "to_long": -71.898,
   "to_lat": -13.227,
   "airline": "Star Peru (2I)",
   "airline_country": "Peru",
   "distance": 543
 },
 {
   "from_airport": "Jorge Chavez Intl",
   "from_city": "Lima",
   "from_country": "Peru",
   "from_long": -76.524,
   "from_lat": -11.37,
   "to_airport": "Alferez Fap David Figueroa Fernandini Airport",
   "to_city": "Huánuco",
   "to_country": "Peru",
   "to_long": -75.675,
   "to_lat": -9.799,
   "airline": "Star Peru (2I)",
   "airline_country": "Peru",
   "distance": 197
 },
 {
   "from_airport": "Jorge Chavez Intl",
   "from_city": "Lima",
   "from_country": "Peru",
   "from_long": -76.524,
   "from_lat": -11.37,
   "to_airport": "Cap Fap David Abenzur Rengifo Intl",
   "to_city": "Pucallpa",
   "to_country": "Peru",
   "to_long": -74.291,
   "to_lat": -7.964,
   "airline": "Star Peru (2I)",
   "airline_country": "Peru",
   "distance": 450
 },
 {
   "from_airport": "Jorge Chavez Intl",
   "from_city": "Lima",
   "from_country": "Peru",
   "from_long": -76.524,
   "from_lat": -11.37,
   "to_airport": "Pedro Canga",
   "to_city": "Tumbes",
   "to_country": "Peru",
   "to_long": -79.969,
   "to_lat": -3.255,
   "airline": "Star Peru (2I)",
   "airline_country": "Peru",
   "distance": 979
 },
 {
   "from_airport": "Jorge Chavez Intl",
   "from_city": "Lima",
   "from_country": "Peru",
   "from_long": -76.524,
   "from_lat": -11.37,
   "to_airport": "Cadete Guillermo Del Castillo Paredes",
   "to_city": "Tarapoto",
   "to_country": "Peru",
   "to_long": -75.956,
   "to_lat": -6.182,
   "airline": "Star Peru (2I)",
   "airline_country": "Peru",
   "distance": 580
 },
 {
   "from_airport": "Cap Fap David Abenzur Rengifo Intl",
   "from_city": "Pucallpa",
   "from_country": "Peru",
   "from_long": -74.291,
   "from_lat": -7.964,
   "to_airport": "Coronel Francisco Secada Vignetta Intl",
   "to_city": "Iquitos",
   "to_country": "Peru",
   "to_long": -72.849,
   "to_lat": -3.642,
   "airline": "Star Peru (2I)",
   "airline_country": "Peru",
   "distance": 506
 },
 {
   "from_airport": "Cap Fap David Abenzur Rengifo Intl",
   "from_city": "Pucallpa",
   "from_country": "Peru",
   "from_long": -74.291,
   "from_lat": -7.964,
   "to_airport": "Jorge Chavez Intl",
   "to_city": "Lima",
   "to_country": "Peru",
   "to_long": -76.524,
   "to_lat": -11.37,
   "airline": "Star Peru (2I)",
   "airline_country": "Peru",
   "distance": 450
 },
 {
   "from_airport": "Cap Fap David Abenzur Rengifo Intl",
   "from_city": "Pucallpa",
   "from_country": "Peru",
   "from_long": -74.291,
   "from_lat": -7.964,
   "to_airport": "Cadete Guillermo Del Castillo Paredes",
   "to_city": "Tarapoto",
   "to_country": "Peru",
   "to_long": -75.956,
   "to_lat": -6.182,
   "airline": "Star Peru (2I)",
   "airline_country": "Peru",
   "distance": 270
 },
 {
   "from_airport": "Padre Aldamiz",
   "from_city": "Puerto Maldonado",
   "from_country": "Peru",
   "from_long": -68.715,
   "from_lat": -12.357,
   "to_airport": "Teniente Alejandro Velasco Astete Intl",
   "to_city": "Cuzco",
   "to_country": "Peru",
   "to_long": -71.898,
   "to_lat": -13.227,
   "airline": "Star Peru (2I)",
   "airline_country": "Peru",
   "distance": 358
 },
 {
   "from_airport": "Pedro Canga",
   "from_city": "Tumbes",
   "from_country": "Peru",
   "from_long": -79.969,
   "from_lat": -3.255,
   "to_airport": "Capitan Montes",
   "to_city": "Talara",
   "to_country": "Peru",
   "to_long": -80.757,
   "to_lat": -4.295,
   "airline": "Star Peru (2I)",
   "airline_country": "Peru",
   "distance": 144
 },
 {
   "from_airport": "Cadete Guillermo Del Castillo Paredes",
   "from_city": "Tarapoto",
   "from_country": "Peru",
   "from_long": -75.956,
   "from_lat": -6.182,
   "to_airport": "Coronel Francisco Secada Vignetta Intl",
   "to_city": "Iquitos",
   "to_country": "Peru",
   "to_long": -72.849,
   "to_lat": -3.642,
   "airline": "Star Peru (2I)",
   "airline_country": "Peru",
   "distance": 445
 },
 {
   "from_airport": "Cadete Guillermo Del Castillo Paredes",
   "from_city": "Tarapoto",
   "from_country": "Peru",
   "from_long": -75.956,
   "from_lat": -6.182,
   "to_airport": "Jorge Chavez Intl",
   "to_city": "Lima",
   "to_country": "Peru",
   "to_long": -76.524,
   "to_lat": -11.37,
   "airline": "Star Peru (2I)",
   "airline_country": "Peru",
   "distance": 580
 },
 {
   "from_airport": "Cadete Guillermo Del Castillo Paredes",
   "from_city": "Tarapoto",
   "from_country": "Peru",
   "from_long": -75.956,
   "from_lat": -6.182,
   "to_airport": "Cap Fap David Abenzur Rengifo Intl",
   "to_city": "Pucallpa",
   "to_country": "Peru",
   "to_long": -74.291,
   "to_lat": -7.964,
   "airline": "Star Peru (2I)",
   "airline_country": "Peru",
   "distance": 270
 },
 {
   "from_airport": "Capitan Montes",
   "from_city": "Talara",
   "from_country": "Peru",
   "from_long": -80.757,
   "from_lat": -4.295,
   "to_airport": "Jorge Chavez Intl",
   "to_city": "Lima",
   "to_country": "Peru",
   "to_long": -76.524,
   "to_lat": -11.37,
   "airline": "Star Peru (2I)",
   "airline_country": "Peru",
   "distance": 914
 },
 {
   "from_airport": "Abidjan Felix Houphouet Boigny Intl",
   "from_city": "Abidjan",
   "from_country": "Cote d'Ivoire",
   "from_long": -3.878,
   "from_lat": 5.435,
   "to_airport": "Bobo Dioulasso",
   "to_city": "Bobo-dioulasso",
   "to_country": "Burkina Faso",
   "to_long": -3.885,
   "to_lat": 11.266,
   "airline": "Air Burkina",
   "airline_country": "Burkina Faso",
   "distance": 648
 },
 {
   "from_airport": "Abidjan Felix Houphouet Boigny Intl",
   "from_city": "Abidjan",
   "from_country": "Cote d'Ivoire",
   "from_long": -3.878,
   "from_lat": 5.435,
   "to_airport": "Ouagadougou",
   "to_city": "Ouagadougou",
   "to_country": "Burkina Faso",
   "to_long": -1.188,
   "to_lat": 12.588,
   "airline": "Air Burkina",
   "airline_country": "Burkina Faso",
   "distance": 848
 },
 {
   "from_airport": "Kotoka Intl",
   "from_city": "Accra",
   "from_country": "Ghana",
   "from_long": 0.388,
   "from_lat": 6.008,
   "to_airport": "Ouagadougou",
   "to_city": "Ouagadougou",
   "to_country": "Burkina Faso",
   "to_long": -1.188,
   "to_lat": 12.588,
   "airline": "Air Burkina",
   "airline_country": "Burkina Faso",
   "distance": 751
 },
 {
   "from_airport": "Senou",
   "from_city": "Bamako",
   "from_country": "Mali",
   "from_long": -7.917,
   "from_lat": 12.889,
   "to_airport": "Leopold Sedar Senghor Intl",
   "to_city": "Dakar",
   "to_country": "Senegal",
   "to_long": -17.151,
   "to_lat": 15.232,
   "airline": "Air Burkina",
   "airline_country": "Burkina Faso",
   "distance": 1029
 },
 {
   "from_airport": "Senou",
   "from_city": "Bamako",
   "from_country": "Mali",
   "from_long": -7.917,
   "from_lat": 12.889,
   "to_airport": "Orly",
   "to_city": "Paris",
   "to_country": "France",
   "to_long": 2.599,
   "to_lat": 49.208,
   "airline": "Air Burkina",
   "airline_country": "Burkina Faso",
   "distance": 4152
 },
 {
   "from_airport": "Senou",
   "from_city": "Bamako",
   "from_country": "Mali",
   "from_long": -7.917,
   "from_lat": 12.889,
   "to_airport": "Ouagadougou",
   "to_city": "Ouagadougou",
   "to_country": "Burkina Faso",
   "to_long": -1.188,
   "to_lat": 12.588,
   "airline": "Air Burkina",
   "airline_country": "Burkina Faso",
   "distance": 730
 },
 {
   "from_airport": "Bobo Dioulasso",
   "from_city": "Bobo-dioulasso",
   "from_country": "Burkina Faso",
   "from_long": -3.885,
   "from_lat": 11.266,
   "to_airport": "Abidjan Felix Houphouet Boigny Intl",
   "to_city": "Abidjan",
   "to_country": "Cote d'Ivoire",
   "to_long": -3.878,
   "to_lat": 5.435,
   "airline": "Air Burkina",
   "airline_country": "Burkina Faso",
   "distance": 648
 },
 {
   "from_airport": "Bobo Dioulasso",
   "from_city": "Bobo-dioulasso",
   "from_country": "Burkina Faso",
   "from_long": -3.885,
   "from_lat": 11.266,
   "to_airport": "Ouagadougou",
   "to_city": "Ouagadougou",
   "to_country": "Burkina Faso",
   "to_long": -1.188,
   "to_lat": 12.588,
   "airline": "Air Burkina",
   "airline_country": "Burkina Faso",
   "distance": 328
 },
 {
   "from_airport": "Cadjehoun",
   "from_city": "Cotonou",
   "from_country": "Benin",
   "from_long": 2.64,
   "from_lat": 6.595,
   "to_airport": "Douala",
   "to_city": "Douala",
   "to_country": "Cameroon",
   "to_long": 10.199,
   "to_lat": 4.01,
   "airline": "Air Burkina",
   "airline_country": "Burkina Faso",
   "distance": 884
 },
 {
   "from_airport": "Cadjehoun",
   "from_city": "Cotonou",
   "from_country": "Benin",
   "from_long": 2.64,
   "from_lat": 6.595,
   "to_airport": "Leon M Ba",
   "to_city": "Libreville",
   "to_country": "Gabon",
   "to_long": 9.687,
   "to_lat": 0.764,
   "airline": "Air Burkina",
   "airline_country": "Burkina Faso",
   "distance": 1015
 },
 {
   "from_airport": "Cadjehoun",
   "from_city": "Cotonou",
   "from_country": "Benin",
   "from_long": 2.64,
   "from_lat": 6.595,
   "to_airport": "Ouagadougou",
   "to_city": "Ouagadougou",
   "to_country": "Burkina Faso",
   "to_long": -1.188,
   "to_lat": 12.588,
   "airline": "Air Burkina",
   "airline_country": "Burkina Faso",
   "distance": 787
 },
 {
   "from_airport": "Leopold Sedar Senghor Intl",
   "from_city": "Dakar",
   "from_country": "Senegal",
   "from_long": -17.151,
   "from_lat": 15.232,
   "to_airport": "Senou",
   "to_city": "Bamako",
   "to_country": "Mali",
   "to_long": -7.917,
   "to_lat": 12.889,
   "airline": "Air Burkina",
   "airline_country": "Burkina Faso",
   "distance": 1029
 },
 {
   "from_airport": "Leopold Sedar Senghor Intl",
   "from_city": "Dakar",
   "from_country": "Senegal",
   "from_long": -17.151,
   "from_lat": 15.232,
   "to_airport": "Ouagadougou",
   "to_city": "Ouagadougou",
   "to_country": "Burkina Faso",
   "to_long": -1.188,
   "to_lat": 12.588,
   "airline": "Air Burkina",
   "airline_country": "Burkina Faso",
   "distance": 1747
 },
 {
   "from_airport": "Douala",
   "from_city": "Douala",
   "from_country": "Cameroon",
   "from_long": 10.199,
   "from_lat": 4.01,
   "to_airport": "Cadjehoun",
   "to_city": "Cotonou",
   "to_country": "Benin",
   "to_long": 2.64,
   "to_lat": 6.595,
   "airline": "Air Burkina",
   "airline_country": "Burkina Faso",
   "distance": 884
 },
 {
   "from_airport": "Leon M Ba",
   "from_city": "Libreville",
   "from_country": "Gabon",
   "from_long": 9.687,
   "from_lat": 0.764,
   "to_airport": "Cadjehoun",
   "to_city": "Cotonou",
   "to_country": "Benin",
   "to_long": 2.64,
   "to_lat": 6.595,
   "airline": "Air Burkina",
   "airline_country": "Burkina Faso",
   "distance": 1015
 },
 {
   "from_airport": "Gnassingbe Eyadema Intl",
   "from_city": "Lome",
   "from_country": "Togo",
   "from_long": 1.424,
   "from_lat": 6.276,
   "to_airport": "Ouagadougou",
   "to_city": "Ouagadougou",
   "to_country": "Burkina Faso",
   "to_long": -1.188,
   "to_lat": 12.588,
   "airline": "Air Burkina",
   "airline_country": "Burkina Faso",
   "distance": 758
 },
 {
   "from_airport": "Diori Hamani",
   "from_city": "Niamey",
   "from_country": "Niger",
   "from_long": 2.306,
   "from_lat": 13.802,
   "to_airport": "Ouagadougou",
   "to_city": "Ouagadougou",
   "to_country": "Burkina Faso",
   "to_long": -1.188,
   "to_lat": 12.588,
   "airline": "Air Burkina",
   "airline_country": "Burkina Faso",
   "distance": 401
 },
 {
   "from_airport": "Orly",
   "from_city": "Paris",
   "from_country": "France",
   "from_long": 2.599,
   "from_lat": 49.208,
   "to_airport": "Ouagadougou",
   "to_city": "Ouagadougou",
   "to_country": "Burkina Faso",
   "to_long": -1.188,
   "to_lat": 12.588,
   "airline": "Air Burkina",
   "airline_country": "Burkina Faso",
   "distance": 4086
 },
 {
   "from_airport": "Ouagadougou",
   "from_city": "Ouagadougou",
   "from_country": "Burkina Faso",
   "from_long": -1.188,
   "from_lat": 12.588,
   "to_airport": "Abidjan Felix Houphouet Boigny Intl",
   "to_city": "Abidjan",
   "to_country": "Cote d'Ivoire",
   "to_long": -3.878,
   "to_lat": 5.435,
   "airline": "Air Burkina",
   "airline_country": "Burkina Faso",
   "distance": 848
 },
 {
   "from_airport": "Ouagadougou",
   "from_city": "Ouagadougou",
   "from_country": "Burkina Faso",
   "from_long": -1.188,
   "from_lat": 12.588,
   "to_airport": "Kotoka Intl",
   "to_city": "Accra",
   "to_country": "Ghana",
   "to_long": 0.388,
   "to_lat": 6.008,
   "airline": "Air Burkina",
   "airline_country": "Burkina Faso",
   "distance": 751
 },
 {
   "from_airport": "Ouagadougou",
   "from_city": "Ouagadougou",
   "from_country": "Burkina Faso",
   "from_long": -1.188,
   "from_lat": 12.588,
   "to_airport": "Senou",
   "to_city": "Bamako",
   "to_country": "Mali",
   "to_long": -7.917,
   "to_lat": 12.889,
   "airline": "Air Burkina",
   "airline_country": "Burkina Faso",
   "distance": 730
 },
 {
   "from_airport": "Ouagadougou",
   "from_city": "Ouagadougou",
   "from_country": "Burkina Faso",
   "from_long": -1.188,
   "from_lat": 12.588,
   "to_airport": "Bobo Dioulasso",
   "to_city": "Bobo-dioulasso",
   "to_country": "Burkina Faso",
   "to_long": -3.885,
   "to_lat": 11.266,
   "airline": "Air Burkina",
   "airline_country": "Burkina Faso",
   "distance": 328
 },
 {
   "from_airport": "Ouagadougou",
   "from_city": "Ouagadougou",
   "from_country": "Burkina Faso",
   "from_long": -1.188,
   "from_lat": 12.588,
   "to_airport": "Cadjehoun",
   "to_city": "Cotonou",
   "to_country": "Benin",
   "to_long": 2.64,
   "to_lat": 6.595,
   "airline": "Air Burkina",
   "airline_country": "Burkina Faso",
   "distance": 787
 },
 {
   "from_airport": "Ouagadougou",
   "from_city": "Ouagadougou",
   "from_country": "Burkina Faso",
   "from_long": -1.188,
   "from_lat": 12.588,
   "to_airport": "Leopold Sedar Senghor Intl",
   "to_city": "Dakar",
   "to_country": "Senegal",
   "to_long": -17.151,
   "to_lat": 15.232,
   "airline": "Air Burkina",
   "airline_country": "Burkina Faso",
   "distance": 1747
 },
 {
   "from_airport": "Ouagadougou",
   "from_city": "Ouagadougou",
   "from_country": "Burkina Faso",
   "from_long": -1.188,
   "from_lat": 12.588,
   "to_airport": "Gnassingbe Eyadema Intl",
   "to_city": "Lome",
   "to_country": "Togo",
   "to_long": 1.424,
   "to_lat": 6.276,
   "airline": "Air Burkina",
   "airline_country": "Burkina Faso",
   "distance": 758
 },
 {
   "from_airport": "Ouagadougou",
   "from_city": "Ouagadougou",
   "from_country": "Burkina Faso",
   "from_long": -1.188,
   "from_lat": 12.588,
   "to_airport": "Diori Hamani",
   "to_city": "Niamey",
   "to_country": "Niger",
   "to_long": 2.306,
   "to_lat": 13.802,
   "airline": "Air Burkina",
   "airline_country": "Burkina Faso",
   "distance": 401
 },
 {
   "from_airport": "Eldorado Intl",
   "from_city": "Bogota",
   "from_country": "Colombia",
   "from_long": -73.579,
   "from_lat": 5.169,
   "to_airport": "Mariscal Sucre Intl",
   "to_city": "Quito",
   "to_country": "Ecuador",
   "to_long": -78.148,
   "to_lat": 0.431,
   "airline": "Aerolineas Galapagos (Aerogal)",
   "airline_country": "Ecuador",
   "distance": 731
 },
 {
   "from_airport": "Mariscal Lamar",
   "from_city": "Cuenca",
   "from_country": "Ecuador",
   "from_long": -78.974,
   "from_lat": -2.816,
   "to_airport": "Jose Joaquin De Olmedo Intl",
   "to_city": "Guayaquil",
   "to_country": "Ecuador",
   "to_long": -79.806,
   "to_lat": -1.596,
   "airline": "Aerolineas Galapagos (Aerogal)",
   "airline_country": "Ecuador",
   "distance": 164
 },
 {
   "from_airport": "Mariscal Lamar",
   "from_city": "Cuenca",
   "from_country": "Ecuador",
   "from_long": -78.974,
   "from_lat": -2.816,
   "to_airport": "Mariscal Sucre Intl",
   "to_city": "Quito",
   "to_country": "Ecuador",
   "to_long": -78.148,
   "to_lat": 0.431,
   "airline": "Aerolineas Galapagos (Aerogal)",
   "airline_country": "Ecuador",
   "distance": 372
 },
 {
   "from_airport": "Seymour",
   "from_city": "Galapagos",
   "from_country": "Ecuador",
   "from_long": -89.777,
   "from_lat": -0.09,
   "to_airport": "Jose Joaquin De Olmedo Intl",
   "to_city": "Guayaquil",
   "to_country": "Ecuador",
   "to_long": -79.806,
   "to_lat": -1.596,
   "airline": "Aerolineas Galapagos (Aerogal)",
   "airline_country": "Ecuador",
   "distance": 1121
 },
 {
   "from_airport": "Seymour",
   "from_city": "Galapagos",
   "from_country": "Ecuador",
   "from_long": -89.777,
   "from_lat": -0.09,
   "to_airport": "Mariscal Sucre Intl",
   "to_city": "Quito",
   "to_country": "Ecuador",
   "to_long": -78.148,
   "to_lat": 0.431,
   "airline": "Aerolineas Galapagos (Aerogal)",
   "airline_country": "Ecuador",
   "distance": 1294
 },
 {
   "from_airport": "Jose Joaquin De Olmedo Intl",
   "from_city": "Guayaquil",
   "from_country": "Ecuador",
   "from_long": -79.806,
   "from_lat": -1.596,
   "to_airport": "Mariscal Lamar",
   "to_city": "Cuenca",
   "to_country": "Ecuador",
   "to_long": -78.974,
   "to_lat": -2.816,
   "airline": "Aerolineas Galapagos (Aerogal)",
   "airline_country": "Ecuador",
   "distance": 164
 },
 {
   "from_airport": "Jose Joaquin De Olmedo Intl",
   "from_city": "Guayaquil",
   "from_country": "Ecuador",
   "from_long": -79.806,
   "from_lat": -1.596,
   "to_airport": "Seymour",
   "to_city": "Galapagos",
   "to_country": "Ecuador",
   "to_long": -89.777,
   "to_lat": -0.09,
   "airline": "Aerolineas Galapagos (Aerogal)",
   "airline_country": "Ecuador",
   "distance": 1121
 },
 {
   "from_airport": "Jose Joaquin De Olmedo Intl",
   "from_city": "Guayaquil",
   "from_country": "Ecuador",
   "from_long": -79.806,
   "from_lat": -1.596,
   "to_airport": "John F Kennedy Intl",
   "to_city": "New York",
   "to_country": "United States",
   "to_long": -73.632,
   "to_lat": 41.066,
   "airline": "Aerolineas Galapagos (Aerogal)",
   "airline_country": "Ecuador",
   "distance": 4784
 },
 {
   "from_airport": "Jose Joaquin De Olmedo Intl",
   "from_city": "Guayaquil",
   "from_country": "Ecuador",
   "from_long": -79.806,
   "from_lat": -1.596,
   "to_airport": "Mariscal Sucre Intl",
   "to_city": "Quito",
   "to_country": "Ecuador",
   "to_long": -78.148,
   "to_lat": 0.431,
   "airline": "Aerolineas Galapagos (Aerogal)",
   "airline_country": "Ecuador",
   "distance": 291
 },
 {
   "from_airport": "John F Kennedy Intl",
   "from_city": "New York",
   "from_country": "United States",
   "from_long": -73.632,
   "from_lat": 41.066,
   "to_airport": "Jose Joaquin De Olmedo Intl",
   "to_city": "Guayaquil",
   "to_country": "Ecuador",
   "to_long": -79.806,
   "to_lat": -1.596,
   "airline": "Aerolineas Galapagos (Aerogal)",
   "airline_country": "Ecuador",
   "distance": 4784
 },
 {
   "from_airport": "Eloy Alfaro Intl",
   "from_city": "Manta",
   "from_country": "Ecuador",
   "from_long": -80.465,
   "from_lat": -0.911,
   "to_airport": "Mariscal Sucre Intl",
   "to_city": "Quito",
   "to_country": "Ecuador",
   "to_long": -78.148,
   "to_lat": 0.431,
   "airline": "Aerolineas Galapagos (Aerogal)",
   "airline_country": "Ecuador",
   "distance": 297
 },
 {
   "from_airport": "Mariscal Sucre Intl",
   "from_city": "Quito",
   "from_country": "Ecuador",
   "from_long": -78.148,
   "from_lat": 0.431,
   "to_airport": "Eldorado Intl",
   "to_city": "Bogota",
   "to_country": "Colombia",
   "to_long": -73.579,
   "to_lat": 5.169,
   "airline": "Aerolineas Galapagos (Aerogal)",
   "airline_country": "Ecuador",
   "distance": 731
 },
 {
   "from_airport": "Mariscal Sucre Intl",
   "from_city": "Quito",
   "from_country": "Ecuador",
   "from_long": -78.148,
   "from_lat": 0.431,
   "to_airport": "Mariscal Lamar",
   "to_city": "Cuenca",
   "to_country": "Ecuador",
   "to_long": -78.974,
   "to_lat": -2.816,
   "airline": "Aerolineas Galapagos (Aerogal)",
   "airline_country": "Ecuador",
   "distance": 372
 },
 {
   "from_airport": "Mariscal Sucre Intl",
   "from_city": "Quito",
   "from_country": "Ecuador",
   "from_long": -78.148,
   "from_lat": 0.431,
   "to_airport": "Jose Joaquin De Olmedo Intl",
   "to_city": "Guayaquil",
   "to_country": "Ecuador",
   "to_long": -79.806,
   "to_lat": -1.596,
   "airline": "Aerolineas Galapagos (Aerogal)",
   "airline_country": "Ecuador",
   "distance": 291
 },
 {
   "from_airport": "Mariscal Sucre Intl",
   "from_city": "Quito",
   "from_country": "Ecuador",
   "from_long": -78.148,
   "from_lat": 0.431,
   "to_airport": "Eloy Alfaro Intl",
   "to_city": "Manta",
   "to_country": "Ecuador",
   "to_long": -80.465,
   "to_lat": -0.911,
   "airline": "Aerolineas Galapagos (Aerogal)",
   "airline_country": "Ecuador",
   "distance": 297
 },
 {
   "from_airport": "Bari",
   "from_city": "Bari",
   "from_country": "Italy",
   "from_long": 17.267,
   "from_lat": 41.231,
   "to_airport": "Zurich",
   "to_city": "Zurich",
   "to_country": "Switzerland",
   "to_long": 8.915,
   "to_lat": 47.774,
   "airline": "Helvetic Airways",
   "airline_country": "Switzerland",
   "distance": 982
 },
 {
   "from_airport": "Bristol",
   "from_city": "Bristol",
   "from_country": "United Kingdom",
   "from_long": -2.532,
   "from_lat": 51.637,
   "to_airport": "Zurich",
   "to_city": "Zurich",
   "to_country": "Switzerland",
   "to_long": 8.915,
   "to_lat": 47.774,
   "airline": "Helvetic Airways",
   "airline_country": "Switzerland",
   "distance": 927
 },
 {
   "from_airport": "Zurich",
   "from_city": "Zurich",
   "from_country": "Switzerland",
   "from_long": 8.915,
   "from_lat": 47.774,
   "to_airport": "Bari",
   "to_city": "Bari",
   "to_country": "Italy",
   "to_long": 17.267,
   "to_lat": 41.231,
   "airline": "Helvetic Airways",
   "airline_country": "Switzerland",
   "distance": 982
 },
 {
   "from_airport": "Zurich",
   "from_city": "Zurich",
   "from_country": "Switzerland",
   "from_long": 8.915,
   "from_lat": 47.774,
   "to_airport": "Bristol",
   "to_city": "Bristol",
   "to_country": "United Kingdom",
   "to_long": -2.532,
   "to_lat": 51.637,
   "airline": "Helvetic Airways",
   "airline_country": "Switzerland",
   "distance": 927
 },
 {
   "from_airport": "Ferihegy",
   "from_city": "Budapest",
   "from_country": "Hungary",
   "from_long": 19.425,
   "from_lat": 47.728,
   "to_airport": "Chisinau Intl",
   "to_city": "Kichinau Fir/acc/com",
   "to_country": "Moldova",
   "to_long": 29.551,
   "to_lat": 47.546,
   "airline": "Moldavian Airlines",
   "airline_country": "Moldova",
   "distance": 758
 },
 {
   "from_airport": "Chisinau Intl",
   "from_city": "Kichinau Fir/acc/com",
   "from_country": "Moldova",
   "from_long": 29.551,
   "from_lat": 47.546,
   "to_airport": "Ferihegy",
   "to_city": "Budapest",
   "to_country": "Hungary",
   "to_long": 19.425,
   "to_lat": 47.728,
   "airline": "Moldavian Airlines",
   "airline_country": "Moldova",
   "distance": 758
 },
 {
   "from_airport": "Chisinau Intl",
   "from_city": "Kichinau Fir/acc/com",
   "from_country": "Moldova",
   "from_long": 29.551,
   "from_lat": 47.546,
   "to_airport": "Sabiha Gokcen",
   "to_city": "Istanbul",
   "to_country": "Turkey",
   "to_long": 29.515,
   "to_lat": 41.497,
   "airline": "Moldavian Airlines",
   "airline_country": "Moldova",
   "distance": 672
 },
 {
   "from_airport": "Chisinau Intl",
   "from_city": "Kichinau Fir/acc/com",
   "from_country": "Moldova",
   "from_long": 29.551,
   "from_lat": 47.546,
   "to_airport": "Traian Vuia",
   "to_city": "Timisoara",
   "to_country": "Romania",
   "to_long": 21.563,
   "to_lat": 46.349,
   "airline": "Moldavian Airlines",
   "airline_country": "Moldova",
   "distance": 620
 },
 {
   "from_airport": "Sabiha Gokcen",
   "from_city": "Istanbul",
   "from_country": "Turkey",
   "from_long": 29.515,
   "from_lat": 41.497,
   "to_airport": "Chisinau Intl",
   "to_city": "Kichinau Fir/acc/com",
   "to_country": "Moldova",
   "to_long": 29.551,
   "to_lat": 47.546,
   "airline": "Moldavian Airlines",
   "airline_country": "Moldova",
   "distance": 672
 },
 {
   "from_airport": "Traian Vuia",
   "from_city": "Timisoara",
   "from_country": "Romania",
   "from_long": 21.563,
   "from_lat": 46.349,
   "to_airport": "Chisinau Intl",
   "to_city": "Kichinau Fir/acc/com",
   "to_country": "Moldova",
   "to_long": 29.551,
   "to_lat": 47.546,
   "airline": "Moldavian Airlines",
   "airline_country": "Moldova",
   "distance": 620
 },
 {
   "from_airport": "Arvidsjaur",
   "from_city": "Arvidsjaur",
   "from_country": "Sweden",
   "from_long": 19.469,
   "from_lat": 65.983,
   "to_airport": "Arlanda",
   "to_city": "Stockholm",
   "to_country": "Sweden",
   "to_long": 18.531,
   "to_lat": 60.086,
   "airline": "Yuzhmashavia",
   "airline_country": "Ukraine",
   "distance": 657
 },
 {
   "from_airport": "Arvidsjaur",
   "from_city": "Arvidsjaur",
   "from_country": "Sweden",
   "from_long": 19.469,
   "from_lat": 65.983,
   "to_airport": "Lycksele",
   "to_city": "Lycksele",
   "to_country": "Sweden",
   "to_long": 19.193,
   "to_lat": 64.913,
   "airline": "Yuzhmashavia",
   "airline_country": "Ukraine",
   "distance": 119
 },
 {
   "from_airport": "Arlanda",
   "from_city": "Stockholm",
   "from_country": "Sweden",
   "from_long": 18.531,
   "from_lat": 60.086,
   "to_airport": "Arvidsjaur",
   "to_city": "Arvidsjaur",
   "to_country": "Sweden",
   "to_long": 19.469,
   "to_lat": 65.983,
   "airline": "Yuzhmashavia",
   "airline_country": "Ukraine",
   "distance": 657
 },
 {
   "from_airport": "Arlanda",
   "from_city": "Stockholm",
   "from_country": "Sweden",
   "from_long": 18.531,
   "from_lat": 60.086,
   "to_airport": "Gallivare",
   "to_city": "Gallivare",
   "to_country": "Sweden",
   "to_long": 21.357,
   "to_lat": 67.22,
   "airline": "Yuzhmashavia",
   "airline_country": "Ukraine",
   "distance": 805
 },
 {
   "from_airport": "Arlanda",
   "from_city": "Stockholm",
   "from_country": "Sweden",
   "from_long": 18.531,
   "from_lat": 60.086,
   "to_airport": "Kramfors Solleftea",
   "to_city": "Kramfors",
   "to_country": "Sweden",
   "to_long": 18.281,
   "to_lat": 63.08,
   "airline": "Yuzhmashavia",
   "airline_country": "Ukraine",
   "distance": 333
 },
 {
   "from_airport": "Arlanda",
   "from_city": "Stockholm",
   "from_country": "Sweden",
   "from_long": 18.531,
   "from_lat": 60.086,
   "to_airport": "Lycksele",
   "to_city": "Lycksele",
   "to_country": "Sweden",
   "to_long": 19.193,
   "to_lat": 64.913,
   "airline": "Yuzhmashavia",
   "airline_country": "Ukraine",
   "distance": 537
 },
 {
   "from_airport": "Arlanda",
   "from_city": "Stockholm",
   "from_country": "Sweden",
   "from_long": 18.531,
   "from_lat": 60.086,
   "to_airport": "Mariehamn",
   "to_city": "Mariehamn",
   "to_country": "Finland",
   "to_long": 20.496,
   "to_lat": 60.203,
   "airline": "Yuzhmashavia",
   "airline_country": "Ukraine",
   "distance": 109
 },
 {
   "from_airport": "Arlanda",
   "from_city": "Stockholm",
   "from_country": "Sweden",
   "from_long": 18.531,
   "from_lat": 60.086,
   "to_airport": "Visby",
   "to_city": "Visby",
   "to_country": "Sweden",
   "to_long": 18.577,
   "to_lat": 58.104,
   "airline": "Yuzhmashavia",
   "airline_country": "Ukraine",
   "distance": 220
 },
 {
   "from_airport": "Arlanda",
   "from_city": "Stockholm",
   "from_country": "Sweden",
   "from_long": 18.531,
   "from_lat": 60.086,
   "to_airport": "Vilhelmina",
   "to_city": "Vilhelmina",
   "to_country": "Sweden",
   "to_long": 17.389,
   "to_lat": 64.965,
   "airline": "Yuzhmashavia",
   "airline_country": "Ukraine",
   "distance": 545
 },
 {
   "from_airport": "Bromma",
   "from_city": "Stockholm",
   "from_country": "Sweden",
   "from_long": 18.569,
   "from_lat": 59.59,
   "to_airport": "Östersund Airport",
   "to_city": "Östersund",
   "to_country": "Sweden",
   "to_long": 14.833,
   "to_lat": 63.324,
   "airline": "Yuzhmashavia",
   "airline_country": "Ukraine",
   "distance": 459
 },
 {
   "from_airport": "Kastrup",
   "from_city": "Copenhagen",
   "from_country": "Denmark",
   "from_long": 13.093,
   "from_lat": 56.029,
   "to_airport": "Saab",
   "to_city": "Linkoeping",
   "to_country": "Sweden",
   "to_long": 16.134,
   "to_lat": 58.676,
   "airline": "Yuzhmashavia",
   "airline_country": "Ukraine",
   "distance": 346
 },
 {
   "from_airport": "Gallivare",
   "from_city": "Gallivare",
   "from_country": "Sweden",
   "from_long": 21.357,
   "from_lat": 67.22,
   "to_airport": "Arlanda",
   "to_city": "Stockholm",
   "to_country": "Sweden",
   "to_long": 18.531,
   "to_lat": 60.086,
   "airline": "Yuzhmashavia",
   "airline_country": "Ukraine",
   "distance": 805
 },
 {
   "from_airport": "Gallivare",
   "from_city": "Gallivare",
   "from_country": "Sweden",
   "from_long": 21.357,
   "from_lat": 67.22,
   "to_airport": "Kramfors Solleftea",
   "to_city": "Kramfors",
   "to_country": "Sweden",
   "to_long": 18.281,
   "to_lat": 63.08,
   "airline": "Yuzhmashavia",
   "airline_country": "Ukraine",
   "distance": 482
 },
 {
   "from_airport": "Helsinki Vantaa",
   "from_city": "Helsinki",
   "from_country": "Finland",
   "from_long": 25.605,
   "from_lat": 60.528,
   "to_airport": "Mariehamn",
   "to_city": "Mariehamn",
   "to_country": "Finland",
   "to_long": 20.496,
   "to_lat": 60.203,
   "airline": "Yuzhmashavia",
   "airline_country": "Ukraine",
   "distance": 283
 },
 {
   "from_airport": "Hemavan Airport",
   "from_city": "Hemavan",
   "from_country": "Sweden",
   "from_long": 15.137,
   "from_lat": 66.343,
   "to_airport": "Vilhelmina",
   "to_city": "Vilhelmina",
   "to_country": "Sweden",
   "to_long": 17.389,
   "to_lat": 64.965,
   "airline": "Yuzhmashavia",
   "airline_country": "Ukraine",
   "distance": 184
 },
 {
   "from_airport": "Kramfors Solleftea",
   "from_city": "Kramfors",
   "from_country": "Sweden",
   "from_long": 18.281,
   "from_lat": 63.08,
   "to_airport": "Arlanda",
   "to_city": "Stockholm",
   "to_country": "Sweden",
   "to_long": 18.531,
   "to_lat": 60.086,
   "airline": "Yuzhmashavia",
   "airline_country": "Ukraine",
   "distance": 333
 },
 {
   "from_airport": "Kramfors Solleftea",
   "from_city": "Kramfors",
   "from_country": "Sweden",
   "from_long": 18.281,
   "from_lat": 63.08,
   "to_airport": "Gallivare",
   "to_city": "Gallivare",
   "to_country": "Sweden",
   "to_long": 21.357,
   "to_lat": 67.22,
   "airline": "Yuzhmashavia",
   "airline_country": "Ukraine",
   "distance": 482
 },
 {
   "from_airport": "Saab",
   "from_city": "Linkoeping",
   "from_country": "Sweden",
   "from_long": 16.134,
   "from_lat": 58.676,
   "to_airport": "Kastrup",
   "to_city": "Copenhagen",
   "to_country": "Denmark",
   "to_long": 13.093,
   "to_lat": 56.029,
   "airline": "Yuzhmashavia",
   "airline_country": "Ukraine",
   "distance": 346
 },
 {
   "from_airport": "Saab",
   "from_city": "Linkoeping",
   "from_country": "Sweden",
   "from_long": 16.134,
   "from_lat": 58.676,
   "to_airport": "Orebro",
   "to_city": "Orebro",
   "to_country": "Sweden",
   "to_long": 15.063,
   "to_lat": 59.372,
   "airline": "Yuzhmashavia",
   "airline_country": "Ukraine",
   "distance": 98
 },
 {
   "from_airport": "Lycksele",
   "from_city": "Lycksele",
   "from_country": "Sweden",
   "from_long": 19.193,
   "from_lat": 64.913,
   "to_airport": "Arvidsjaur",
   "to_city": "Arvidsjaur",
   "to_country": "Sweden",
   "to_long": 19.469,
   "to_lat": 65.983,
   "airline": "Yuzhmashavia",
   "airline_country": "Ukraine",
   "distance": 119
 },
 {
   "from_airport": "Lycksele",
   "from_city": "Lycksele",
   "from_country": "Sweden",
   "from_long": 19.193,
   "from_lat": 64.913,
   "to_airport": "Arlanda",
   "to_city": "Stockholm",
   "to_country": "Sweden",
   "to_long": 18.531,
   "to_lat": 60.086,
   "airline": "Yuzhmashavia",
   "airline_country": "Ukraine",
   "distance": 537
 },
 {
   "from_airport": "Mariehamn",
   "from_city": "Mariehamn",
   "from_country": "Finland",
   "from_long": 20.496,
   "from_lat": 60.203,
   "to_airport": "Arlanda",
   "to_city": "Stockholm",
   "to_country": "Sweden",
   "to_long": 18.531,
   "to_lat": 60.086,
   "airline": "Yuzhmashavia",
   "airline_country": "Ukraine",
   "distance": 109
 },
 {
   "from_airport": "Mariehamn",
   "from_city": "Mariehamn",
   "from_country": "Finland",
   "from_long": 20.496,
   "from_lat": 60.203,
   "to_airport": "Helsinki Vantaa",
   "to_city": "Helsinki",
   "to_country": "Finland",
   "to_long": 25.605,
   "to_lat": 60.528,
   "airline": "Yuzhmashavia",
   "airline_country": "Ukraine",
   "distance": 283
 },
 {
   "from_airport": "Orebro",
   "from_city": "Orebro",
   "from_country": "Sweden",
   "from_long": 15.063,
   "from_lat": 59.372,
   "to_airport": "Saab",
   "to_city": "Linkoeping",
   "to_country": "Sweden",
   "to_long": 16.134,
   "to_lat": 58.676,
   "airline": "Yuzhmashavia",
   "airline_country": "Ukraine",
   "distance": 98
 },
 {
   "from_airport": "Östersund Airport",
   "from_city": "Östersund",
   "from_country": "Sweden",
   "from_long": 14.833,
   "from_lat": 63.324,
   "to_airport": "Bromma",
   "to_city": "Stockholm",
   "to_country": "Sweden",
   "to_long": 18.569,
   "to_lat": 59.59,
   "airline": "Yuzhmashavia",
   "airline_country": "Ukraine",
   "distance": 459
 },
 {
   "from_airport": "Visby",
   "from_city": "Visby",
   "from_country": "Sweden",
   "from_long": 18.577,
   "from_lat": 58.104,
   "to_airport": "Arlanda",
   "to_city": "Stockholm",
   "to_country": "Sweden",
   "to_long": 18.531,
   "to_lat": 60.086,
   "airline": "Yuzhmashavia",
   "airline_country": "Ukraine",
   "distance": 220
 },
 {
   "from_airport": "Vilhelmina",
   "from_city": "Vilhelmina",
   "from_country": "Sweden",
   "from_long": 17.389,
   "from_lat": 64.965,
   "to_airport": "Arlanda",
   "to_city": "Stockholm",
   "to_country": "Sweden",
   "to_long": 18.531,
   "to_lat": 60.086,
   "airline": "Yuzhmashavia",
   "airline_country": "Ukraine",
   "distance": 545
 },
 {
   "from_airport": "Vilhelmina",
   "from_city": "Vilhelmina",
   "from_country": "Sweden",
   "from_long": 17.389,
   "from_lat": 64.965,
   "to_airport": "Hemavan Airport",
   "to_city": "Hemavan",
   "to_country": "Sweden",
   "to_long": 15.137,
   "to_lat": 66.343,
   "airline": "Yuzhmashavia",
   "airline_country": "Ukraine",
   "distance": 184
 },
 {
   "from_airport": "Kodiak",
   "from_city": "Kodiak",
   "from_country": "United States",
   "from_long": -152.157,
   "from_lat": 58.249,
   "to_airport": "Amook Bay Seaplane Base",
   "to_city": "Amook Bay",
   "to_country": "United States",
   "to_long": -153.693,
   "to_lat": 57.785,
   "airline": "Air Salone",
   "airline_country": "Sierra Leone",
   "distance": 104
 },
 {
   "from_airport": "Kodiak",
   "from_city": "Kodiak",
   "from_country": "United States",
   "from_long": -152.157,
   "from_lat": 58.249,
   "to_airport": "Kitoi Bay Seaplane Base",
   "to_city": "Kitoi Bay",
   "to_country": "United States",
   "to_long": -151.951,
   "to_lat": 58.318,
   "airline": "Air Salone",
   "airline_country": "Sierra Leone",
   "distance": 14
 },
 {
   "from_airport": "Kodiak",
   "from_city": "Kodiak",
   "from_country": "United States",
   "from_long": -152.157,
   "from_lat": 58.249,
   "to_airport": "Larsen Bay Airport",
   "to_city": "Larsen Bay",
   "to_country": "United States",
   "to_long": -153.962,
   "to_lat": 57.891,
   "airline": "Air Salone",
   "airline_country": "Sierra Leone",
   "distance": 113
 },
 {
   "from_airport": "Kodiak",
   "from_city": "Kodiak",
   "from_country": "United States",
   "from_long": -152.157,
   "from_lat": 58.249,
   "to_airport": "Ouzinkie Airport",
   "to_city": "Ouzinkie",
   "to_country": "United States",
   "to_long": -152.168,
   "to_lat": 58.538,
   "airline": "Air Salone",
   "airline_country": "Sierra Leone",
   "distance": 32
 },
 {
   "from_airport": "Kodiak",
   "from_city": "Kodiak",
   "from_country": "United States",
   "from_long": -152.157,
   "from_lat": 58.249,
   "to_airport": "Old Harbor Airport",
   "to_city": "Old Harbor",
   "to_country": "United States",
   "to_long": -152.783,
   "to_lat": 57.363,
   "airline": "Air Salone",
   "airline_country": "Sierra Leone",
   "distance": 105
 },
 {
   "from_airport": "Amook Bay Seaplane Base",
   "from_city": "Amook Bay",
   "from_country": "United States",
   "from_long": -153.693,
   "from_lat": 57.785,
   "to_airport": "Zachar Bay Seaplane Base",
   "to_city": "Zachar Bay",
   "to_country": "United States",
   "to_long": -153.584,
   "to_lat": 57.916,
   "airline": "Air Salone",
   "airline_country": "Sierra Leone",
   "distance": 15
 },
 {
   "from_airport": "Kitoi Bay Seaplane Base",
   "from_city": "Kitoi Bay",
   "from_country": "United States",
   "from_long": -151.951,
   "from_lat": 58.318,
   "to_airport": "Seal Bay Seaplane Base",
   "to_city": "Seal Bay",
   "to_country": "United States",
   "to_long": -152.167,
   "to_lat": 58.277,
   "airline": "Air Salone",
   "airline_country": "Sierra Leone",
   "distance": 13
 },
 {
   "from_airport": "Larsen Bay Airport",
   "from_city": "Larsen Bay",
   "from_country": "United States",
   "from_long": -153.962,
   "from_lat": 57.891,
   "to_airport": "Karuluk Airport",
   "to_city": "Karluk",
   "to_country": "United States",
   "to_long": -154.084,
   "to_lat": 57.944,
   "airline": "Air Salone",
   "airline_country": "Sierra Leone",
   "distance": 9
 },
 {
   "from_airport": "Ouzinkie Airport",
   "from_city": "Ouzinkie",
   "from_country": "United States",
   "from_long": -152.168,
   "from_lat": 58.538,
   "to_airport": "Port Lions Airport",
   "to_city": "Port Lions",
   "to_country": "United States",
   "to_long": -152.744,
   "to_lat": 58.475,
   "airline": "Air Salone",
   "airline_country": "Sierra Leone",
   "distance": 34
 },
 {
   "from_airport": "Seal Bay Seaplane Base",
   "from_city": "Seal Bay",
   "from_country": "United States",
   "from_long": -152.167,
   "from_lat": 58.277,
   "to_airport": "Port Williams Seaplane Base",
   "to_city": "Port Williams",
   "to_country": "United States",
   "to_long": -152.304,
   "to_lat": 58.816,
   "airline": "Air Salone",
   "airline_country": "Sierra Leone",
   "distance": 60
 },
 {
   "from_airport": "Bacolod",
   "from_city": "Bacolod",
   "from_country": "Philippines",
   "from_long": 123.549,
   "from_lat": 11.07,
   "to_airport": "Mactan Cebu Intl",
   "to_city": "Cebu",
   "to_country": "Philippines",
   "to_long": 124.632,
   "to_lat": 10.512,
   "airline": "Air Philippines",
   "airline_country": "Philippines",
   "distance": 133
 },
 {
   "from_airport": "Bacolod",
   "from_city": "Bacolod",
   "from_country": "Philippines",
   "from_long": 123.549,
   "from_lat": 11.07,
   "to_airport": "Ninoy Aquino Intl",
   "to_city": "Manila",
   "to_country": "Philippines",
   "to_long": 121.032,
   "to_lat": 14.847,
   "airline": "Air Philippines",
   "airline_country": "Philippines",
   "distance": 500
 },
 {
   "from_airport": "Baiyun Intl",
   "from_city": "Guangzhou",
   "from_country": "China",
   "from_long": 113.497,
   "from_lat": 23.654,
   "to_airport": "Mactan Cebu Intl",
   "to_city": "Cebu",
   "to_country": "Philippines",
   "to_long": 124.632,
   "to_lat": 10.512,
   "airline": "Air Philippines",
   "airline_country": "Philippines",
   "distance": 1878
 },
 {
   "from_airport": "Cotabato",
   "from_city": "Cotabato",
   "from_country": "Philippines",
   "from_long": 124.349,
   "from_lat": 7.275,
   "to_airport": "Ninoy Aquino Intl",
   "to_city": "Manila",
   "to_country": "Philippines",
   "to_long": 121.032,
   "to_lat": 14.847,
   "airline": "Air Philippines",
   "airline_country": "Philippines",
   "distance": 916
 },
 {
   "from_airport": "Mactan Cebu Intl",
   "from_city": "Cebu",
   "from_country": "Philippines",
   "from_long": 124.632,
   "from_lat": 10.512,
   "to_airport": "Bacolod",
   "to_city": "Bacolod",
   "to_country": "Philippines",
   "to_long": 123.549,
   "to_lat": 11.07,
   "airline": "Air Philippines",
   "airline_country": "Philippines",
   "distance": 133
 },
 {
   "from_airport": "Mactan Cebu Intl",
   "from_city": "Cebu",
   "from_country": "Philippines",
   "from_long": 124.632,
   "from_lat": 10.512,
   "to_airport": "Baiyun Intl",
   "to_city": "Guangzhou",
   "to_country": "China",
   "to_long": 113.497,
   "to_lat": 23.654,
   "airline": "Air Philippines",
   "airline_country": "Philippines",
   "distance": 1878
 },
 {
   "from_airport": "Mactan Cebu Intl",
   "from_city": "Cebu",
   "from_country": "Philippines",
   "from_long": 124.632,
   "from_lat": 10.512,
   "to_airport": "Cagayan De Oro",
   "to_city": "Ladag",
   "to_country": "Philippines",
   "to_long": 125.018,
   "to_lat": 8.692,
   "airline": "Air Philippines",
   "airline_country": "Philippines",
   "distance": 206
 },
 {
   "from_airport": "Mactan Cebu Intl",
   "from_city": "Cebu",
   "from_country": "Philippines",
   "from_long": 124.632,
   "from_lat": 10.512,
   "to_airport": "Francisco Bangoy International",
   "to_city": "Davao",
   "to_country": "Philippines",
   "to_long": 126.076,
   "to_lat": 7.209,
   "airline": "Air Philippines",
   "airline_country": "Philippines",
   "distance": 400
 },
 {
   "from_airport": "Mactan Cebu Intl",
   "from_city": "Cebu",
   "from_country": "Philippines",
   "from_long": 124.632,
   "from_lat": 10.512,
   "to_airport": "Hong Kong Intl",
   "to_city": "Hong Kong",
   "to_country": "Hong Kong",
   "to_long": 114.524,
   "to_lat": 22.514,
   "airline": "Air Philippines",
   "airline_country": "Philippines",
   "distance": 1713
 },
 {
   "from_airport": "Mactan Cebu Intl",
   "from_city": "Cebu",
   "from_country": "Philippines",
   "from_long": 124.632,
   "from_lat": 10.512,
   "to_airport": "Iloilo",
   "to_city": "Iloilo",
   "to_country": "Philippines",
   "to_long": 122.908,
   "to_lat": 11.188,
   "airline": "Air Philippines",
   "airline_country": "Philippines",
   "distance": 202
 },
 {
   "from_airport": "Mactan Cebu Intl",
   "from_city": "Cebu",
   "from_country": "Philippines",
   "from_long": 124.632,
   "from_lat": 10.512,
   "to_airport": "Ninoy Aquino Intl",
   "to_city": "Manila",
   "to_country": "Philippines",
   "to_long": 121.032,
   "to_lat": 14.847,
   "airline": "Air Philippines",
   "airline_country": "Philippines",
   "distance": 620
 },
 {
   "from_airport": "Mactan Cebu Intl",
   "from_city": "Cebu",
   "from_country": "Philippines",
   "from_long": 124.632,
   "from_lat": 10.512,
   "to_airport": "Godofredo P",
   "to_city": "Caticlan",
   "to_country": "Philippines",
   "to_long": 122.588,
   "to_lat": 12.535,
   "airline": "Air Philippines",
   "airline_country": "Philippines",
   "distance": 316
 },
 {
   "from_airport": "Mactan Cebu Intl",
   "from_city": "Cebu",
   "from_country": "Philippines",
   "from_long": 124.632,
   "from_lat": 10.512,
   "to_airport": "Ozamis",
   "to_city": "Ozamis",
   "to_country": "Philippines",
   "to_long": 124.402,
   "to_lat": 8.297,
   "airline": "Air Philippines",
   "airline_country": "Philippines",
   "distance": 247
 },
 {
   "from_airport": "Mactan Cebu Intl",
   "from_city": "Cebu",
   "from_country": "Philippines",
   "from_long": 124.632,
   "from_lat": 10.512,
   "to_airport": "Daniel Z Romualdez",
   "to_city": "Tacloban",
   "to_country": "Philippines",
   "to_long": 125.046,
   "to_lat": 11.379,
   "airline": "Air Philippines",
   "airline_country": "Philippines",
   "distance": 106
 },
 {
   "from_airport": "Mactan Cebu Intl",
   "from_city": "Cebu",
   "from_country": "Philippines",
   "from_long": 124.632,
   "from_lat": 10.512,
   "to_airport": "Zamboanga Intl",
   "to_city": "Zamboanga",
   "to_country": "Philippines",
   "to_long": 122.099,
   "to_lat": 7.537,
   "airline": "Air Philippines",
   "airline_country": "Philippines",
   "distance": 432
 },
 {
   "from_airport": "Cagayan De Oro",
   "from_city": "Ladag",
   "from_country": "Philippines",
   "from_long": 125.018,
   "from_lat": 8.692,
   "to_airport": "Mactan Cebu Intl",
   "to_city": "Cebu",
   "to_country": "Philippines",
   "to_long": 124.632,
   "to_lat": 10.512,
   "airline": "Air Philippines",
   "airline_country": "Philippines",
   "distance": 206
 },
 {
   "from_airport": "Cagayan De Oro",
   "from_city": "Ladag",
   "from_country": "Philippines",
   "from_long": 125.018,
   "from_lat": 8.692,
   "to_airport": "Francisco Bangoy International",
   "to_city": "Davao",
   "to_country": "Philippines",
   "to_long": 126.076,
   "to_lat": 7.209,
   "airline": "Air Philippines",
   "airline_country": "Philippines",
   "distance": 201
 },
 {
   "from_airport": "Cagayan De Oro",
   "from_city": "Ladag",
   "from_country": "Philippines",
   "from_long": 125.018,
   "from_lat": 8.692,
   "to_airport": "Ninoy Aquino Intl",
   "to_city": "Manila",
   "to_country": "Philippines",
   "to_long": 121.032,
   "to_lat": 14.847,
   "airline": "Air Philippines",
   "airline_country": "Philippines",
   "distance": 810
 },
 {
   "from_airport": "Catarman National Airport",
   "from_city": "Catarman",
   "from_country": "Philippines",
   "from_long": 125.059,
   "from_lat": 12.837,
   "to_airport": "Ninoy Aquino Intl",
   "to_city": "Manila",
   "to_country": "Philippines",
   "to_long": 121.032,
   "to_lat": 14.847,
   "airline": "Air Philippines",
   "airline_country": "Philippines",
   "distance": 488
 },
 {
   "from_airport": "Calbayog Airport",
   "from_city": "Calbayog City",
   "from_country": "Philippines",
   "from_long": 124.908,
   "from_lat": 12.121,
   "to_airport": "Ninoy Aquino Intl",
   "to_city": "Manila",
   "to_country": "Philippines",
   "to_long": 121.032,
   "to_lat": 14.847,
   "airline": "Air Philippines",
   "airline_country": "Philippines",
   "distance": 517
 },
 {
   "from_airport": "Francisco Bangoy International",
   "from_city": "Davao",
   "from_country": "Philippines",
   "from_long": 126.076,
   "from_lat": 7.209,
   "to_airport": "Mactan Cebu Intl",
   "to_city": "Cebu",
   "to_country": "Philippines",
   "to_long": 124.632,
   "to_lat": 10.512,
   "airline": "Air Philippines",
   "airline_country": "Philippines",
   "distance": 400
 },
 {
   "from_airport": "Francisco Bangoy International",
   "from_city": "Davao",
   "from_country": "Philippines",
   "from_long": 126.076,
   "from_lat": 7.209,
   "to_airport": "Cagayan De Oro",
   "to_city": "Ladag",
   "to_country": "Philippines",
   "to_long": 125.018,
   "to_lat": 8.692,
   "airline": "Air Philippines",
   "airline_country": "Philippines",
   "distance": 201
 },
 {
   "from_airport": "Francisco Bangoy International",
   "from_city": "Davao",
   "from_country": "Philippines",
   "from_long": 126.076,
   "from_lat": 7.209,
   "to_airport": "Iloilo",
   "to_city": "Iloilo",
   "to_country": "Philippines",
   "to_long": 122.908,
   "to_lat": 11.188,
   "airline": "Air Philippines",
   "airline_country": "Philippines",
   "distance": 562
 },
 {
   "from_airport": "Francisco Bangoy International",
   "from_city": "Davao",
   "from_country": "Philippines",
   "from_long": 126.076,
   "from_lat": 7.209,
   "to_airport": "Ninoy Aquino Intl",
   "to_city": "Manila",
   "to_country": "Philippines",
   "to_long": 121.032,
   "to_lat": 14.847,
   "airline": "Air Philippines",
   "airline_country": "Philippines",
   "distance": 1011
 },
 {
   "from_airport": "Francisco Bangoy International",
   "from_city": "Davao",
   "from_country": "Philippines",
   "from_long": 126.076,
   "from_lat": 7.209,
   "to_airport": "Zamboanga Intl",
   "to_city": "Zamboanga",
   "to_country": "Philippines",
   "to_long": 122.099,
   "to_lat": 7.537,
   "airline": "Air Philippines",
   "airline_country": "Philippines",
   "distance": 440
 },
 {
   "from_airport": "General Santos International Airport",
   "from_city": "General Santos City",
   "from_country": "Philippines",
   "from_long": 125.392,
   "from_lat": 6.177,
   "to_airport": "Ninoy Aquino Intl",
   "to_city": "Manila",
   "to_country": "Philippines",
   "to_long": 121.032,
   "to_lat": 14.847,
   "airline": "Air Philippines",
   "airline_country": "Philippines",
   "distance": 1075
 },
 {
   "from_airport": "Xiaoshan",
   "from_city": "Hangzhou",
   "from_country": "China",
   "from_long": 120.724,
   "from_lat": 30.382,
   "to_airport": "Kalibo",
   "to_city": "Kalibo",
   "to_country": "Philippines",
   "to_long": 122.627,
   "to_lat": 12.132,
   "airline": "Air Philippines",
   "airline_country": "Philippines",
   "distance": 2038
 },
 {
   "from_airport": "Hong Kong Intl",
   "from_city": "Hong Kong",
   "from_country": "Hong Kong",
   "from_long": 114.524,
   "from_lat": 22.514,
   "to_airport": "Mactan Cebu Intl",
   "to_city": "Cebu",
   "to_country": "Philippines",
   "to_long": 124.632,
   "to_lat": 10.512,
   "airline": "Air Philippines",
   "airline_country": "Philippines",
   "distance": 1713
 },
 {
   "from_airport": "Iloilo",
   "from_city": "Iloilo",
   "from_country": "Philippines",
   "from_long": 122.908,
   "from_lat": 11.188,
   "to_airport": "Mactan Cebu Intl",
   "to_city": "Cebu",
   "to_country": "Philippines",
   "to_long": 124.632,
   "to_lat": 10.512,
   "airline": "Air Philippines",
   "airline_country": "Philippines",
   "distance": 202
 },
 {
   "from_airport": "Iloilo",
   "from_city": "Iloilo",
   "from_country": "Philippines",
   "from_long": 122.908,
   "from_lat": 11.188,
   "to_airport": "Francisco Bangoy International",
   "to_city": "Davao",
   "to_country": "Philippines",
   "to_long": 126.076,
   "to_lat": 7.209,
   "airline": "Air Philippines",
   "airline_country": "Philippines",
   "distance": 562
 },
 {
   "from_airport": "Iloilo",
   "from_city": "Iloilo",
   "from_country": "Philippines",
   "from_long": 122.908,
   "from_lat": 11.188,
   "to_airport": "Ninoy Aquino Intl",
   "to_city": "Manila",
   "to_country": "Philippines",
   "to_long": 121.032,
   "to_lat": 14.847,
   "airline": "Air Philippines",
   "airline_country": "Philippines",
   "distance": 454
 },
 {
   "from_airport": "Jolo Airport",
   "from_city": "Jolo Airport",
   "from_country": "Philippines",
   "from_long": 121.018,
   "from_lat": 6.089,
   "to_airport": "Zamboanga Intl",
   "to_city": "Zamboanga",
   "to_country": "Philippines",
   "to_long": 122.099,
   "to_lat": 7.537,
   "airline": "Air Philippines",
   "airline_country": "Philippines",
   "distance": 200
 },
 {
   "from_airport": "Kalibo",
   "from_city": "Kalibo",
   "from_country": "Philippines",
   "from_long": 122.627,
   "from_lat": 12.132,
   "to_airport": "Xiaoshan",
   "to_city": "Hangzhou",
   "to_country": "China",
   "to_long": 120.724,
   "to_lat": 30.382,
   "airline": "Air Philippines",
   "airline_country": "Philippines",
   "distance": 2038
 },
 {
   "from_airport": "Kalibo",
   "from_city": "Kalibo",
   "from_country": "Philippines",
   "from_long": 122.627,
   "from_lat": 12.132,
   "to_airport": "Ninoy Aquino Intl",
   "to_city": "Manila",
   "to_country": "Philippines",
   "to_long": 121.032,
   "to_lat": 14.847,
   "airline": "Air Philippines",
   "airline_country": "Philippines",
   "distance": 347
 },
 {
   "from_airport": "Kalibo",
   "from_city": "Kalibo",
   "from_country": "Philippines",
   "from_long": 122.627,
   "from_lat": 12.132,
   "to_airport": "Capital Intl",
   "to_city": "Beijing",
   "to_country": "China",
   "to_long": 116.974,
   "to_lat": 40.133,
   "airline": "Air Philippines",
   "airline_country": "Philippines",
   "distance": 3162
 },
 {
   "from_airport": "Kalibo",
   "from_city": "Kalibo",
   "from_country": "Philippines",
   "from_long": 122.627,
   "from_lat": 12.132,
   "to_airport": "Pudong",
   "to_city": "Shanghai",
   "to_country": "China",
   "to_long": 122.342,
   "to_lat": 31.238,
   "airline": "Air Philippines",
   "airline_country": "Philippines",
   "distance": 2124
 },
 {
   "from_airport": "Laoag Intl",
   "from_city": "Laoag",
   "from_country": "Philippines",
   "from_long": 120.885,
   "from_lat": 18.296,
   "to_airport": "Ninoy Aquino Intl",
   "to_city": "Manila",
   "to_country": "Philippines",
   "to_long": 121.032,
   "to_lat": 14.847,
   "airline": "Air Philippines",
   "airline_country": "Philippines",
   "distance": 383
 },
 {
   "from_airport": "Legazpi",
   "from_city": "Legazpi",
   "from_country": "Philippines",
   "from_long": 124.243,
   "from_lat": 13.261,
   "to_airport": "Ninoy Aquino Intl",
   "to_city": "Manila",
   "to_country": "Philippines",
   "to_long": 121.032,
   "to_lat": 14.847,
   "airline": "Air Philippines",
   "airline_country": "Philippines",
   "distance": 388
 },
 {
   "from_airport": "Masbate Airport",
   "from_city": "Masbate",
   "from_country": "Philippines",
   "from_long": 124.048,
   "from_lat": 12.615,
   "to_airport": "Ninoy Aquino Intl",
   "to_city": "Manila",
   "to_country": "Philippines",
   "to_long": 121.032,
   "to_lat": 14.847,
   "airline": "Air Philippines",
   "airline_country": "Philippines",
   "distance": 409
 },
 {
   "from_airport": "Ninoy Aquino Intl",
   "from_city": "Manila",
   "from_country": "Philippines",
   "from_long": 121.032,
   "from_lat": 14.847,
   "to_airport": "Bacolod",
   "to_city": "Bacolod",
   "to_country": "Philippines",
   "to_long": 123.549,
   "to_lat": 11.07,
   "airline": "Air Philippines",
   "airline_country": "Philippines",
   "distance": 500
 },
 {
   "from_airport": "Ninoy Aquino Intl",
   "from_city": "Manila",
   "from_country": "Philippines",
   "from_long": 121.032,
   "from_lat": 14.847,
   "to_airport": "Cotabato",
   "to_city": "Cotabato",
   "to_country": "Philippines",
   "to_long": 124.349,
   "to_lat": 7.275,
   "airline": "Air Philippines",
   "airline_country": "Philippines",
   "distance": 916
 },
 {
   "from_airport": "Ninoy Aquino Intl",
   "from_city": "Manila",
   "from_country": "Philippines",
   "from_long": 121.032,
   "from_lat": 14.847,
   "to_airport": "Mactan Cebu Intl",
   "to_city": "Cebu",
   "to_country": "Philippines",
   "to_long": 124.632,
   "to_lat": 10.512,
   "airline": "Air Philippines",
   "airline_country": "Philippines",
   "distance": 620
 },
 {
   "from_airport": "Ninoy Aquino Intl",
   "from_city": "Manila",
   "from_country": "Philippines",
   "from_long": 121.032,
   "from_lat": 14.847,
   "to_airport": "Cagayan De Oro",
   "to_city": "Ladag",
   "to_country": "Philippines",
   "to_long": 125.018,
   "to_lat": 8.692,
   "airline": "Air Philippines",
   "airline_country": "Philippines",
   "distance": 810
 },
 {
   "from_airport": "Ninoy Aquino Intl",
   "from_city": "Manila",
   "from_country": "Philippines",
   "from_long": 121.032,
   "from_lat": 14.847,
   "to_airport": "Catarman National Airport",
   "to_city": "Catarman",
   "to_country": "Philippines",
   "to_long": 125.059,
   "to_lat": 12.837,
   "airline": "Air Philippines",
   "airline_country": "Philippines",
   "distance": 488
 },
 {
   "from_airport": "Ninoy Aquino Intl",
   "from_city": "Manila",
   "from_country": "Philippines",
   "from_long": 121.032,
   "from_lat": 14.847,
   "to_airport": "Calbayog Airport",
   "to_city": "Calbayog City",
   "to_country": "Philippines",
   "to_long": 124.908,
   "to_lat": 12.121,
   "airline": "Air Philippines",
   "airline_country": "Philippines",
   "distance": 517
 },
 {
   "from_airport": "Ninoy Aquino Intl",
   "from_city": "Manila",
   "from_country": "Philippines",
   "from_long": 121.032,
   "from_lat": 14.847,
   "to_airport": "Francisco Bangoy International",
   "to_city": "Davao",
   "to_country": "Philippines",
   "to_long": 126.076,
   "to_lat": 7.209,
   "airline": "Air Philippines",
   "airline_country": "Philippines",
   "distance": 1011
 },
 {
   "from_airport": "Ninoy Aquino Intl",
   "from_city": "Manila",
   "from_country": "Philippines",
   "from_long": 121.032,
   "from_lat": 14.847,
   "to_airport": "General Santos International Airport",
   "to_city": "General Santos City",
   "to_country": "Philippines",
   "to_long": 125.392,
   "to_lat": 6.177,
   "airline": "Air Philippines",
   "airline_country": "Philippines",
   "distance": 1075
 },
 {
   "from_airport": "Ninoy Aquino Intl",
   "from_city": "Manila",
   "from_country": "Philippines",
   "from_long": 121.032,
   "from_lat": 14.847,
   "to_airport": "Iloilo",
   "to_city": "Iloilo",
   "to_country": "Philippines",
   "to_long": 122.908,
   "to_lat": 11.188,
   "airline": "Air Philippines",
   "airline_country": "Philippines",
   "distance": 454
 },
 {
   "from_airport": "Ninoy Aquino Intl",
   "from_city": "Manila",
   "from_country": "Philippines",
   "from_long": 121.032,
   "from_lat": 14.847,
   "to_airport": "Kalibo",
   "to_city": "Kalibo",
   "to_country": "Philippines",
   "to_long": 122.627,
   "to_lat": 12.132,
   "airline": "Air Philippines",
   "airline_country": "Philippines",
   "distance": 347
 },
 {
   "from_airport": "Ninoy Aquino Intl",
   "from_city": "Manila",
   "from_country": "Philippines",
   "from_long": 121.032,
   "from_lat": 14.847,
   "to_airport": "Laoag Intl",
   "to_city": "Laoag",
   "to_country": "Philippines",
   "to_long": 120.885,
   "to_lat": 18.296,
   "airline": "Air Philippines",
   "airline_country": "Philippines",
   "distance": 383
 },
 {
   "from_airport": "Ninoy Aquino Intl",
   "from_city": "Manila",
   "from_country": "Philippines",
   "from_long": 121.032,
   "from_lat": 14.847,
   "to_airport": "Legazpi",
   "to_city": "Legazpi",
   "to_country": "Philippines",
   "to_long": 124.243,
   "to_lat": 13.261,
   "airline": "Air Philippines",
   "airline_country": "Philippines",
   "distance": 388
 },
 {
   "from_airport": "Ninoy Aquino Intl",
   "from_city": "Manila",
   "from_country": "Philippines",
   "from_long": 121.032,
   "from_lat": 14.847,
   "to_airport": "Masbate Airport",
   "to_city": "Masbate",
   "to_country": "Philippines",
   "to_long": 124.048,
   "to_lat": 12.615,
   "airline": "Air Philippines",
   "airline_country": "Philippines",
   "distance": 409
 },
 {
   "from_airport": "Ninoy Aquino Intl",
   "from_city": "Manila",
   "from_country": "Philippines",
   "from_long": 121.032,
   "from_lat": 14.847,
   "to_airport": "Godofredo P",
   "to_city": "Caticlan",
   "to_country": "Philippines",
   "to_long": 122.588,
   "to_lat": 12.535,
   "airline": "Air Philippines",
   "airline_country": "Philippines",
   "distance": 307
 },
 {
   "from_airport": "Ninoy Aquino Intl",
   "from_city": "Manila",
   "from_country": "Philippines",
   "from_long": 121.032,
   "from_lat": 14.847,
   "to_airport": "Ozamis",
   "to_city": "Ozamis",
   "to_country": "Philippines",
   "to_long": 124.402,
   "to_lat": 8.297,
   "airline": "Air Philippines",
   "airline_country": "Philippines",
   "distance": 815
 },
 {
   "from_airport": "Ninoy Aquino Intl",
   "from_city": "Manila",
   "from_country": "Philippines",
   "from_long": 121.032,
   "from_lat": 14.847,
   "to_airport": "Puerto Princesa",
   "to_city": "Puerto Princesa",
   "to_country": "Philippines",
   "to_long": 119.264,
   "to_lat": 10.236,
   "airline": "Air Philippines",
   "airline_country": "Philippines",
   "distance": 547
 },
 {
   "from_airport": "Ninoy Aquino Intl",
   "from_city": "Manila",
   "from_country": "Philippines",
   "from_long": 121.032,
   "from_lat": 14.847,
   "to_airport": "Changi Intl",
   "to_city": "Singapore",
   "to_country": "Singapore",
   "to_long": 104.657,
   "to_lat": 1.583,
   "airline": "Air Philippines",
   "airline_country": "Philippines",
   "distance": 2325
 },
 {
   "from_airport": "Ninoy Aquino Intl",
   "from_city": "Manila",
   "from_country": "Philippines",
   "from_long": 121.032,
   "from_lat": 14.847,
   "to_airport": "Antique",
   "to_city": "San Jose",
   "to_country": "Philippines",
   "to_long": 122.555,
   "to_lat": 11.276,
   "airline": "Air Philippines",
   "airline_country": "Philippines",
   "distance": 429
 },
 {
   "from_airport": "Ninoy Aquino Intl",
   "from_city": "Manila",
   "from_country": "Philippines",
   "from_long": 121.032,
   "from_lat": 14.847,
   "to_airport": "Surigao Airport",
   "to_city": "Sangley Point",
   "to_country": "Philippines",
   "to_long": 125.798,
   "to_lat": 10.262,
   "airline": "Air Philippines",
   "airline_country": "Philippines",
   "distance": 726
 },
 {
   "from_airport": "Ninoy Aquino Intl",
   "from_city": "Manila",
   "from_country": "Philippines",
   "from_long": 121.032,
   "from_lat": 14.847,
   "to_airport": "Daniel Z Romualdez",
   "to_city": "Tacloban",
   "to_country": "Philippines",
   "to_long": 125.046,
   "to_lat": 11.379,
   "airline": "Air Philippines",
   "airline_country": "Philippines",
   "distance": 581
 },
 {
   "from_airport": "Ninoy Aquino Intl",
   "from_city": "Manila",
   "from_country": "Philippines",
   "from_long": 121.032,
   "from_lat": 14.847,
   "to_airport": "Tagbilaran",
   "to_city": "Tagbilaran",
   "to_country": "Philippines",
   "to_long": 124.422,
   "to_lat": 10.106,
   "airline": "Air Philippines",
   "airline_country": "Philippines",
   "distance": 642
 },
 {
   "from_airport": "Ninoy Aquino Intl",
   "from_city": "Manila",
   "from_country": "Philippines",
   "from_long": 121.032,
   "from_lat": 14.847,
   "to_airport": "Tuguegarao Airport",
   "to_city": "Tuguegarao",
   "to_country": "Philippines",
   "to_long": 122.217,
   "to_lat": 18.063,
   "airline": "Air Philippines",
   "airline_country": "Philippines",
   "distance": 379
 },
 {
   "from_airport": "Ninoy Aquino Intl",
   "from_city": "Manila",
   "from_country": "Philippines",
   "from_long": 121.032,
   "from_lat": 14.847,
   "to_airport": "Busuanga",
   "to_city": "Busuanga",
   "to_country": "Philippines",
   "to_long": 120.166,
   "to_lat": 12.202,
   "airline": "Air Philippines",
   "airline_country": "Philippines",
   "distance": 308
 },
 {
   "from_airport": "Ninoy Aquino Intl",
   "from_city": "Manila",
   "from_country": "Philippines",
   "from_long": 121.032,
   "from_lat": 14.847,
   "to_airport": "Naga Airport",
   "to_city": "Naga",
   "to_country": "Philippines",
   "to_long": 123.45,
   "to_lat": 13.974,
   "airline": "Air Philippines",
   "airline_country": "Philippines",
   "distance": 277
 },
 {
   "from_airport": "Ninoy Aquino Intl",
   "from_city": "Manila",
   "from_country": "Philippines",
   "from_long": 121.032,
   "from_lat": 14.847,
   "to_airport": "Zamboanga Intl",
   "to_city": "Zamboanga",
   "to_country": "Philippines",
   "to_long": 122.099,
   "to_lat": 7.537,
   "airline": "Air Philippines",
   "airline_country": "Philippines",
   "distance": 821
 },
 {
   "from_airport": "Godofredo P",
   "from_city": "Caticlan",
   "from_country": "Philippines",
   "from_long": 122.588,
   "from_lat": 12.535,
   "to_airport": "Mactan Cebu Intl",
   "to_city": "Cebu",
   "to_country": "Philippines",
   "to_long": 124.632,
   "to_lat": 10.512,
   "airline": "Air Philippines",
   "airline_country": "Philippines",
   "distance": 316
 },
 {
   "from_airport": "Godofredo P",
   "from_city": "Caticlan",
   "from_country": "Philippines",
   "from_long": 122.588,
   "from_lat": 12.535,
   "to_airport": "Ninoy Aquino Intl",
   "to_city": "Manila",
   "to_country": "Philippines",
   "to_long": 121.032,
   "to_lat": 14.847,
   "airline": "Air Philippines",
   "airline_country": "Philippines",
   "distance": 307
 },
 {
   "from_airport": "Ozamis",
   "from_city": "Ozamis",
   "from_country": "Philippines",
   "from_long": 124.402,
   "from_lat": 8.297,
   "to_airport": "Mactan Cebu Intl",
   "to_city": "Cebu",
   "to_country": "Philippines",
   "to_long": 124.632,
   "to_lat": 10.512,
   "airline": "Air Philippines",
   "airline_country": "Philippines",
   "distance": 247
 },
 {
   "from_airport": "Ozamis",
   "from_city": "Ozamis",
   "from_country": "Philippines",
   "from_long": 124.402,
   "from_lat": 8.297,
   "to_airport": "Ninoy Aquino Intl",
   "to_city": "Manila",
   "to_country": "Philippines",
   "to_long": 121.032,
   "to_lat": 14.847,
   "airline": "Air Philippines",
   "airline_country": "Philippines",
   "distance": 815
 },
 {
   "from_airport": "Capital Intl",
   "from_city": "Beijing",
   "from_country": "China",
   "from_long": 116.974,
   "from_lat": 40.133,
   "to_airport": "Kalibo",
   "to_city": "Kalibo",
   "to_country": "Philippines",
   "to_long": 122.627,
   "to_lat": 12.132,
   "airline": "Air Philippines",
   "airline_country": "Philippines",
   "distance": 3162
 },
 {
   "from_airport": "Puerto Princesa",
   "from_city": "Puerto Princesa",
   "from_country": "Philippines",
   "from_long": 119.264,
   "from_lat": 10.236,
   "to_airport": "Ninoy Aquino Intl",
   "to_city": "Manila",
   "to_country": "Philippines",
   "to_long": 121.032,
   "to_lat": 14.847,
   "airline": "Air Philippines",
   "airline_country": "Philippines",
   "distance": 547
 },
 {
   "from_airport": "Puerto Princesa",
   "from_city": "Puerto Princesa",
   "from_country": "Philippines",
   "from_long": 119.264,
   "from_lat": 10.236,
   "to_airport": "Busuanga",
   "to_city": "Busuanga",
   "to_country": "Philippines",
   "to_long": 120.166,
   "to_lat": 12.202,
   "airline": "Air Philippines",
   "airline_country": "Philippines",
   "distance": 239
 },
 {
   "from_airport": "Pudong",
   "from_city": "Shanghai",
   "from_country": "China",
   "from_long": 122.342,
   "from_lat": 31.238,
   "to_airport": "Kalibo",
   "to_city": "Kalibo",
   "to_country": "Philippines",
   "to_long": 122.627,
   "to_lat": 12.132,
   "airline": "Air Philippines",
   "airline_country": "Philippines",
   "distance": 2124
 },
 {
   "from_airport": "Changi Intl",
   "from_city": "Singapore",
   "from_country": "Singapore",
   "from_long": 104.657,
   "from_lat": 1.583,
   "to_airport": "Ninoy Aquino Intl",
   "to_city": "Manila",
   "to_country": "Philippines",
   "to_long": 121.032,
   "to_lat": 14.847,
   "airline": "Air Philippines",
   "airline_country": "Philippines",
   "distance": 2325
 },
 {
   "from_airport": "Antique",
   "from_city": "San Jose",
   "from_country": "Philippines",
   "from_long": 122.555,
   "from_lat": 11.276,
   "to_airport": "Ninoy Aquino Intl",
   "to_city": "Manila",
   "to_country": "Philippines",
   "to_long": 121.032,
   "to_lat": 14.847,
   "airline": "Air Philippines",
   "airline_country": "Philippines",
   "distance": 429
 },
 {
   "from_airport": "Surigao Airport",
   "from_city": "Sangley Point",
   "from_country": "Philippines",
   "from_long": 125.798,
   "from_lat": 10.262,
   "to_airport": "Ninoy Aquino Intl",
   "to_city": "Manila",
   "to_country": "Philippines",
   "to_long": 121.032,
   "to_lat": 14.847,
   "airline": "Air Philippines",
   "airline_country": "Philippines",
   "distance": 726
 },
 {
   "from_airport": "Daniel Z Romualdez",
   "from_city": "Tacloban",
   "from_country": "Philippines",
   "from_long": 125.046,
   "from_lat": 11.379,
   "to_airport": "Mactan Cebu Intl",
   "to_city": "Cebu",
   "to_country": "Philippines",
   "to_long": 124.632,
   "to_lat": 10.512,
   "airline": "Air Philippines",
   "airline_country": "Philippines",
   "distance": 106
 },
 {
   "from_airport": "Daniel Z Romualdez",
   "from_city": "Tacloban",
   "from_country": "Philippines",
   "from_long": 125.046,
   "from_lat": 11.379,
   "to_airport": "Ninoy Aquino Intl",
   "to_city": "Manila",
   "to_country": "Philippines",
   "to_long": 121.032,
   "to_lat": 14.847,
   "airline": "Air Philippines",
   "airline_country": "Philippines",
   "distance": 581
 },
 {
   "from_airport": "Tagbilaran",
   "from_city": "Tagbilaran",
   "from_country": "Philippines",
   "from_long": 124.422,
   "from_lat": 10.106,
   "to_airport": "Ninoy Aquino Intl",
   "to_city": "Manila",
   "to_country": "Philippines",
   "to_long": 121.032,
   "to_lat": 14.847,
   "airline": "Air Philippines",
   "airline_country": "Philippines",
   "distance": 642
 },
 {
   "from_airport": "Tuguegarao Airport",
   "from_city": "Tuguegarao",
   "from_country": "Philippines",
   "from_long": 122.217,
   "from_lat": 18.063,
   "to_airport": "Ninoy Aquino Intl",
   "to_city": "Manila",
   "to_country": "Philippines",
   "to_long": 121.032,
   "to_lat": 14.847,
   "airline": "Air Philippines",
   "airline_country": "Philippines",
   "distance": 379
 },
 {
   "from_airport": "Busuanga",
   "from_city": "Busuanga",
   "from_country": "Philippines",
   "from_long": 120.166,
   "from_lat": 12.202,
   "to_airport": "Ninoy Aquino Intl",
   "to_city": "Manila",
   "to_country": "Philippines",
   "to_long": 121.032,
   "to_lat": 14.847,
   "airline": "Air Philippines",
   "airline_country": "Philippines",
   "distance": 308
 },
 {
   "from_airport": "Busuanga",
   "from_city": "Busuanga",
   "from_country": "Philippines",
   "from_long": 120.166,
   "from_lat": 12.202,
   "to_airport": "Puerto Princesa",
   "to_city": "Puerto Princesa",
   "to_country": "Philippines",
   "to_long": 119.264,
   "to_lat": 10.236,
   "airline": "Air Philippines",
   "airline_country": "Philippines",
   "distance": 239
 },
 {
   "from_airport": "Naga Airport",
   "from_city": "Naga",
   "from_country": "Philippines",
   "from_long": 123.45,
   "from_lat": 13.974,
   "to_airport": "Ninoy Aquino Intl",
   "to_city": "Manila",
   "to_country": "Philippines",
   "to_long": 121.032,
   "to_lat": 14.847,
   "airline": "Air Philippines",
   "airline_country": "Philippines",
   "distance": 277
 },
 {
   "from_airport": "Zamboanga Intl",
   "from_city": "Zamboanga",
   "from_country": "Philippines",
   "from_long": 122.099,
   "from_lat": 7.537,
   "to_airport": "Mactan Cebu Intl",
   "to_city": "Cebu",
   "to_country": "Philippines",
   "to_long": 124.632,
   "to_lat": 10.512,
   "airline": "Air Philippines",
   "airline_country": "Philippines",
   "distance": 432
 },
 {
   "from_airport": "Zamboanga Intl",
   "from_city": "Zamboanga",
   "from_country": "Philippines",
   "from_long": 122.099,
   "from_lat": 7.537,
   "to_airport": "Francisco Bangoy International",
   "to_city": "Davao",
   "to_country": "Philippines",
   "to_long": 126.076,
   "to_lat": 7.209,
   "airline": "Air Philippines",
   "airline_country": "Philippines",
   "distance": 440
 },
 {
   "from_airport": "Zamboanga Intl",
   "from_city": "Zamboanga",
   "from_country": "Philippines",
   "from_long": 122.099,
   "from_lat": 7.537,
   "to_airport": "Jolo Airport",
   "to_city": "Jolo Airport",
   "to_country": "Philippines",
   "to_long": 121.018,
   "to_lat": 6.089,
   "airline": "Air Philippines",
   "airline_country": "Philippines",
   "distance": 200
 },
 {
   "from_airport": "Zamboanga Intl",
   "from_city": "Zamboanga",
   "from_country": "Philippines",
   "from_long": 122.099,
   "from_lat": 7.537,
   "to_airport": "Ninoy Aquino Intl",
   "to_city": "Manila",
   "to_country": "Philippines",
   "to_long": 121.032,
   "to_lat": 14.847,
   "airline": "Air Philippines",
   "airline_country": "Philippines",
   "distance": 821
 },
 {
   "from_airport": "Mosnov",
   "from_city": "Ostrava",
   "from_country": "Czech Republic",
   "from_long": 18.185,
   "from_lat": 50.16,
   "to_airport": "Ruzyne",
   "to_city": "Prague",
   "to_country": "Czech Republic",
   "to_long": 14.433,
   "to_lat": 50.168,
   "airline": "JobAir",
   "airline_country": "Czech Republic",
   "distance": 267
 },
 {
   "from_airport": "Mosnov",
   "from_city": "Ostrava",
   "from_country": "Czech Republic",
   "from_long": 18.185,
   "from_lat": 50.16,
   "to_airport": "Schwechat",
   "to_city": "Vienna",
   "to_country": "Austria",
   "to_long": 16.949,
   "to_lat": 48.183,
   "airline": "JobAir",
   "airline_country": "Czech Republic",
   "distance": 237
 },
 {
   "from_airport": "Lawica",
   "from_city": "Poznan",
   "from_country": "Poland",
   "from_long": 17.377,
   "from_lat": 52.701,
   "to_airport": "Ruzyne",
   "to_city": "Prague",
   "to_country": "Czech Republic",
   "to_long": 14.433,
   "to_lat": 50.168,
   "airline": "JobAir",
   "airline_country": "Czech Republic",
   "distance": 347
 },
 {
   "from_airport": "Ruzyne",
   "from_city": "Prague",
   "from_country": "Czech Republic",
   "from_long": 14.433,
   "from_lat": 50.168,
   "to_airport": "Mosnov",
   "to_city": "Ostrava",
   "to_country": "Czech Republic",
   "to_long": 18.185,
   "to_lat": 50.16,
   "airline": "JobAir",
   "airline_country": "Czech Republic",
   "distance": 267
 },
 {
   "from_airport": "Ruzyne",
   "from_city": "Prague",
   "from_country": "Czech Republic",
   "from_long": 14.433,
   "from_lat": 50.168,
   "to_airport": "Lawica",
   "to_city": "Poznan",
   "to_country": "Poland",
   "to_long": 17.377,
   "to_lat": 52.701,
   "airline": "JobAir",
   "airline_country": "Czech Republic",
   "distance": 347
 },
 {
   "from_airport": "Schwechat",
   "from_city": "Vienna",
   "from_country": "Austria",
   "from_long": 16.949,
   "from_lat": 48.183,
   "to_airport": "Mosnov",
   "to_city": "Ostrava",
   "to_country": "Czech Republic",
   "to_long": 18.185,
   "to_lat": 50.16,
   "airline": "JobAir",
   "airline_country": "Czech Republic",
   "distance": 237
 },
 {
   "from_airport": "Southeast Iowa Regional Airport",
   "from_city": "Burlington",
   "from_country": "United States",
   "from_long": -90.543,
   "from_lat": 41.305,
   "to_airport": "Chicago Ohare Intl",
   "to_city": "Chicago",
   "to_country": "United States",
   "to_long": -87.842,
   "to_lat": 42.631,
   "airline": "Air Choice One",
   "airline_country": "United States",
   "distance": 267
 },
 {
   "from_airport": "Southeast Iowa Regional Airport",
   "from_city": "Burlington",
   "from_country": "United States",
   "from_long": -90.543,
   "from_lat": 41.305,
   "to_airport": "Lambert St Louis Intl",
   "to_city": "St. Louis",
   "to_country": "United States",
   "to_long": -89.951,
   "to_lat": 39.247,
   "airline": "Air Choice One",
   "airline_country": "United States",
   "distance": 234
 },
 {
   "from_airport": "Decatur",
   "from_city": "Decatur",
   "from_country": "United States",
   "from_long": -88.777,
   "from_lat": 40.39,
   "to_airport": "Chicago Ohare Intl",
   "to_city": "Chicago",
   "to_country": "United States",
   "to_long": -87.842,
   "to_lat": 42.631,
   "airline": "Air Choice One",
   "airline_country": "United States",
   "distance": 260
 },
 {
   "from_airport": "Decatur",
   "from_city": "Decatur",
   "from_country": "United States",
   "from_long": -88.777,
   "from_lat": 40.39,
   "to_airport": "Lambert St Louis Intl",
   "to_city": "St. Louis",
   "to_country": "United States",
   "to_long": -89.951,
   "to_lat": 39.247,
   "airline": "Air Choice One",
   "airline_country": "United States",
   "distance": 161
 },
 {
   "from_airport": "Chicago Ohare Intl",
   "from_city": "Chicago",
   "from_country": "United States",
   "from_long": -87.842,
   "from_lat": 42.631,
   "to_airport": "Southeast Iowa Regional Airport",
   "to_city": "Burlington",
   "to_country": "United States",
   "to_long": -90.543,
   "to_lat": 41.305,
   "airline": "Air Choice One",
   "airline_country": "United States",
   "distance": 267
 },
 {
   "from_airport": "Chicago Ohare Intl",
   "from_city": "Chicago",
   "from_country": "United States",
   "from_long": -87.842,
   "from_lat": 42.631,
   "to_airport": "Decatur",
   "to_city": "Decatur",
   "to_country": "United States",
   "to_long": -88.777,
   "to_lat": 40.39,
   "airline": "Air Choice One",
   "airline_country": "United States",
   "distance": 260
 },
 {
   "from_airport": "Lambert St Louis Intl",
   "from_city": "St. Louis",
   "from_country": "United States",
   "from_long": -89.951,
   "from_lat": 39.247,
   "to_airport": "Southeast Iowa Regional Airport",
   "to_city": "Burlington",
   "to_country": "United States",
   "to_long": -90.543,
   "to_lat": 41.305,
   "airline": "Air Choice One",
   "airline_country": "United States",
   "distance": 234
 },
 {
   "from_airport": "Lambert St Louis Intl",
   "from_city": "St. Louis",
   "from_country": "United States",
   "from_long": -89.951,
   "from_lat": 39.247,
   "to_airport": "Decatur",
   "to_city": "Decatur",
   "to_country": "United States",
   "to_long": -88.777,
   "to_lat": 40.39,
   "airline": "Air Choice One",
   "airline_country": "United States",
   "distance": 161
 },
 {
   "from_airport": "Craig Seaplane Base",
   "from_city": "Craig",
   "from_country": "United States",
   "from_long": -132.58,
   "from_lat": 55.798,
   "to_airport": "Hollis Seaplane Base",
   "to_city": "Hollis",
   "to_country": "United States",
   "to_long": -132.411,
   "to_lat": 55.802,
   "airline": "Fly Colombia ( Interliging Flights )",
   "airline_country": "Colombia",
   "distance": 10
 },
 {
   "from_airport": "Craig Seaplane Base",
   "from_city": "Craig",
   "from_country": "United States",
   "from_long": -132.58,
   "from_lat": 55.798,
   "to_airport": "Ketchikan Intl",
   "to_city": "Ketchikan",
   "to_country": "United States",
   "to_long": -131.523,
   "to_lat": 55.592,
   "airline": "Fly Colombia ( Interliging Flights )",
   "airline_country": "Colombia",
   "distance": 70
 },
 {
   "from_airport": "Hollis Seaplane Base",
   "from_city": "Hollis",
   "from_country": "United States",
   "from_long": -132.411,
   "from_lat": 55.802,
   "to_airport": "Craig Seaplane Base",
   "to_city": "Craig",
   "to_country": "United States",
   "to_long": -132.58,
   "to_lat": 55.798,
   "airline": "Fly Colombia ( Interliging Flights )",
   "airline_country": "Colombia",
   "distance": 10
 },
 {
   "from_airport": "Hollis Seaplane Base",
   "from_city": "Hollis",
   "from_country": "United States",
   "from_long": -132.411,
   "from_lat": 55.802,
   "to_airport": "Ketchikan Intl",
   "to_city": "Ketchikan",
   "to_country": "United States",
   "to_long": -131.523,
   "to_lat": 55.592,
   "airline": "Fly Colombia ( Interliging Flights )",
   "airline_country": "Colombia",
   "distance": 60
 },
 {
   "from_airport": "Thorne Bay Seaplane Base",
   "from_city": "Thorne Bay",
   "from_country": "United States",
   "from_long": -132.228,
   "from_lat": 56.146,
   "to_airport": "Ketchikan Intl",
   "to_city": "Ketchikan",
   "to_country": "United States",
   "to_long": -131.523,
   "to_lat": 55.592,
   "airline": "Fly Colombia ( Interliging Flights )",
   "airline_country": "Colombia",
   "distance": 75
 },
 {
   "from_airport": "Ketchikan Intl",
   "from_city": "Ketchikan",
   "from_country": "United States",
   "from_long": -131.523,
   "from_lat": 55.592,
   "to_airport": "Craig Seaplane Base",
   "to_city": "Craig",
   "to_country": "United States",
   "to_long": -132.58,
   "to_lat": 55.798,
   "airline": "Fly Colombia ( Interliging Flights )",
   "airline_country": "Colombia",
   "distance": 70
 },
 {
   "from_airport": "Ketchikan Intl",
   "from_city": "Ketchikan",
   "from_country": "United States",
   "from_long": -131.523,
   "from_lat": 55.592,
   "to_airport": "Hollis Seaplane Base",
   "to_city": "Hollis",
   "to_country": "United States",
   "to_long": -132.411,
   "to_lat": 55.802,
   "airline": "Fly Colombia ( Interliging Flights )",
   "airline_country": "Colombia",
   "distance": 60
 },
 {
   "from_airport": "Ketchikan Intl",
   "from_city": "Ketchikan",
   "from_country": "United States",
   "from_long": -131.523,
   "from_lat": 55.592,
   "to_airport": "Thorne Bay Seaplane Base",
   "to_city": "Thorne Bay",
   "to_country": "United States",
   "to_long": -132.228,
   "to_lat": 56.146,
   "airline": "Fly Colombia ( Interliging Flights )",
   "airline_country": "Colombia",
   "distance": 75
 },
 {
   "from_airport": "Ketchikan Intl",
   "from_city": "Ketchikan",
   "from_country": "United States",
   "from_long": -131.523,
   "from_lat": 55.592,
   "to_airport": "Metlakatla Seaplane Base",
   "to_city": "Metakatla",
   "to_country": "United States",
   "to_long": -131.297,
   "to_lat": 55.218,
   "airline": "Fly Colombia ( Interliging Flights )",
   "airline_country": "Colombia",
   "distance": 43
 },
 {
   "from_airport": "Metlakatla Seaplane Base",
   "from_city": "Metakatla",
   "from_country": "United States",
   "from_long": -131.297,
   "from_lat": 55.218,
   "to_airport": "Ketchikan Intl",
   "to_city": "Ketchikan",
   "to_country": "United States",
   "to_long": -131.523,
   "to_lat": 55.592,
   "airline": "Fly Colombia ( Interliging Flights )",
   "airline_country": "Colombia",
   "distance": 43
 },
 {
   "from_airport": "Auckland Intl",
   "from_city": "Auckland",
   "from_country": "New Zealand",
   "from_long": 175.319,
   "from_lat": -36.347,
   "to_airport": "Changi Intl",
   "to_city": "Singapore",
   "to_country": "Singapore",
   "to_long": 104.657,
   "to_lat": 1.583,
   "airline": "Jetstar Asia Airways",
   "airline_country": "Singapore",
   "distance": 8396
 },